{"type":"FeatureCollection","features":[{"type":"Feature","geometry":{"type":"Point","coordinates":[-91.966389,34.275]},"properties":{"CWPName":"PINE BLUFF WASTEWATER UTILITY-BOYD POINT WASTEWATER TREATMENT FACILITY","SourceID":"AR0033316","CWPStreet":"900 ISLAND HARBOR MARINA RD","CWPCity":"PINE BLUFF","CWPState":"AR","RegistryID":"110000736197","CWPNAICSCodes":"221320","CWPTotalDesignFlowNmbr":14,"CWPActualAverageFlowNmbr":12.38,"CWPInspectionCount":6,"CWPSNCStatus":null,"CWPQtrsWithNC":0,"CWPE90Cnt":0,"CWPFormalEaCnt":null,"ElectrRptWaiverExpDate":null}},{"type":"Feature","geometry":{"type":"Point","coordinates":[-101.5144,43.83381]},"properties":{"CWPName":"POPLAR ST. WASTEWATER AND WATER IMPROVEMENTS AND NORTH WASTEWATER IMPROVEMENTS","SourceID":"SDR10P5I4","CWPStreet":"INTERSECTION OF 5TH AVENUE AND POPLAR STREET","CWPCity":"KADOKA","CWPState":"SD","RegistryID":"110071944096","CWPNAICSCodes":null,"CWPTotalDesignFlowNmbr":null,"CWPActualAverageFlowNmbr":null,"CWPInspectionCount":0,"CWPSNCStatus":null,"CWPQtrsWithNC":0,"CWPE90Cnt":0,"CWPFormalEaCnt":null,"ElectrRptWaiverExpDate":null}},{"type":"Feature","geometry":{"type":"Point","coordinates":[-86.941666,36.506156]},"properties":{"CWPName":"SPRINGFIELD WATER AND WASTEWATER DEPARTMENT - WASTEWATER TREATMENT PLANT","SourceID":"TNR056426","CWPStreet":"530 LAWRENCE LANE","CWPCity":"SPRINGFIELD","CWPState":"TN","RegistryID":"110006367779","CWPNAICSCodes":"221320","CWPTotalDesignFlowNmbr":null,"CWPActualAverageFlowNmbr":null,"CWPInspectionCount":0,"CWPSNCStatus":null,"CWPQtrsWithNC":0,"CWPE90Cnt":0,"CWPFormalEaCnt":null,"ElectrRptWaiverExpDate":null}},{"type":"Feature","geometry":{"type":"Point","coordinates":[-86.941779,36.505302]},"properties":{"CWPName":"SPRINGFIELD WATER AND WASTEWATER DEPARTMENT - WASTEWATER TREATMENT PLANT","SourceID":"TNR248175","CWPStreet":"2705 LAWRENCE LANE","CWPCity":"SPRINGFIELD","CWPState":"TN","RegistryID":"110070336815","CWPNAICSCodes":null,"CWPTotalDesignFlowNmbr":null,"CWPActualAverageFlowNmbr":null,"CWPInspectionCount":0,"CWPSNCStatus":null,"CWPQtrsWithNC":0,"CWPE90Cnt":0,"CWPFormalEaCnt":null,"ElectrRptWaiverExpDate":null}},{"type":"Feature","geometry":{"type":"Point","coordinates":[-86.941666,36.506156]},"properties":{"CWPName":"SPRINGFIELD WATER AND WASTEWATER DEPARTMENT - WASTEWATER TREATMENT PLANT","SourceID":"TN0024961","CWPStreet":"2705 LAWRENCE LANE","CWPCity":"SPRINGFIELD","CWPState":"TN","RegistryID":"110006367779","CWPNAICSCodes":"221320","CWPTotalDesignFlowNmbr":7,"CWPActualAverageFlowNmbr":3,"CWPInspectionCount":6,"CWPSNCStatus":null,"CWPQtrsWithNC":12,"CWPE90Cnt":32,"CWPFormalEaCnt":1,"ElectrRptWaiverExpDate":null}},{"type":"Feature","geometry":{"type":"Point","coordinates":[-86.522761,40.553496]},"properties":{"CWPName":"TOWN OF FLORA WASTEWATER UTILITY IMPROVEMENTS DIV \"A\" - WASTEWATER TREATMENT PLA","SourceID":"INRA13200","CWPStreet":"507 N DIVISION ST","CWPCity":"FLORA","CWPState":"IN","RegistryID":"110071645232","CWPNAICSCodes":null,"CWPTotalDesignFlowNmbr":null,"CWPActualAverageFlowNmbr":null,"CWPInspectionCount":0,"CWPSNCStatus":null,"CWPQtrsWithNC":0,"CWPE90Cnt":0,"CWPFormalEaCnt":null,"ElectrRptWaiverExpDate":null}},{"type":"Feature","geometry":{"type":"Point","coordinates":[-72.87252,42.62751]},"properties":{"CWPName":"CHARLEMONT SEWER DISTRICT WWTP","SourceID":"MAG580003","CWPStreet":"20 FACTORY ROAD","CWPCity":"CHARLEMONT","CWPState":"MA","RegistryID":"110009917322","CWPNAICSCodes":null,"CWPTotalDesignFlowNmbr":null,"CWPActualAverageFlowNmbr":null,"CWPInspectionCount":0,"CWPSNCStatus":null,"CWPQtrsWithNC":0,"CWPE90Cnt":0,"CWPFormalEaCnt":null,"ElectrRptWaiverExpDate":null}},{"type":"Feature","geometry":{"type":"Point","coordinates":[-92.973444,34.687722]},"properties":{"CWPName":"MILL CREEK WASTEWATER TREATMENT PLANT","SourceID":"ARR001416","CWPStreet":"198 CORTEZ ROAD","CWPCity":"HOT SPRINGS VILLAGE","CWPState":"AR","RegistryID":"110006656485","CWPNAICSCodes":"221320","CWPTotalDesignFlowNmbr":null,"CWPActualAverageFlowNmbr":0,"CWPInspectionCount":1,"CWPSNCStatus":null,"CWPQtrsWithNC":0,"CWPE90Cnt":0,"CWPFormalEaCnt":null,"ElectrRptWaiverExpDate":null}},{"type":"Feature","geometry":{"type":"Point","coordinates":[-120.284227,46.368668]},"properties":{"CWPName":"TOPPENISH, CITY OF - TOPPENISH WWTP","SourceID":"WA0026123","CWPStreet":"501 ANNAHAT ROAD","CWPCity":"TOPPENISH","CWPState":"WA","RegistryID":"110008217508","CWPNAICSCodes":"221320","CWPTotalDesignFlowNmbr":1.67,"CWPActualAverageFlowNmbr":null,"CWPInspectionCount":1,"CWPSNCStatus":null,"CWPQtrsWithNC":12,"CWPE90Cnt":20,"CWPFormalEaCnt":null,"ElectrRptWaiverExpDate":null}},{"type":"Feature","geometry":{"type":"Point","coordinates":[-104.16276,42.05105]},"properties":{"CWPName":"TORRINGTON WY FY2020 WWPTP","SourceID":"WYG740912","CWPStreet":"5127 LIFT STATION RD.","CWPCity":"TORRINGTON","CWPState":"WY","RegistryID":"110071510743","CWPNAICSCodes":null,"CWPTotalDesignFlowNmbr":null,"CWPActualAverageFlowNmbr":null,"CWPInspectionCount":0,"CWPSNCStatus":"Failure to Report DMR - Not Received","CWPQtrsWithNC":2,"CWPE90Cnt":0,"CWPFormalEaCnt":null,"ElectrRptWaiverExpDate":null}},{"type":"Feature","geometry":{"type":"Point","coordinates":[-122.958598,46.396303]},"properties":{"CWPName":"VADER STP","SourceID":"WA0021083","CWPStreet":"SOUTH END OF A STREET","CWPCity":"VADER","CWPState":"WA","RegistryID":"110015554425","CWPNAICSCodes":null,"CWPTotalDesignFlowNmbr":0.76,"CWPActualAverageFlowNmbr":0.26,"CWPInspectionCount":5,"CWPSNCStatus":"Effluent - Non-monthly Average Limit","CWPQtrsWithNC":12,"CWPE90Cnt":28,"CWPFormalEaCnt":1,"ElectrRptWaiverExpDate":null}},{"type":"Feature","geometry":{"type":"Point","coordinates":[-122.958598,46.396303]},"properties":{"CWPName":"VADER WTP","SourceID":"WAG641004","CWPStreet":"MILITARY RD 1.5 M S OF MP 6","CWPCity":"VADER","CWPState":"WA","RegistryID":"110015554425","CWPNAICSCodes":null,"CWPTotalDesignFlowNmbr":null,"CWPActualAverageFlowNmbr":null,"CWPInspectionCount":0,"CWPSNCStatus":null,"CWPQtrsWithNC":12,"CWPE90Cnt":0,"CWPFormalEaCnt":null,"ElectrRptWaiverExpDate":null}},{"type":"Feature","geometry":{"type":"Point","coordinates":[-74.5234,40.64896]},"properties":{"CWPName":"WARREN STAGE IV STP","SourceID":"NJ0022497","CWPStreet":"299 KING GEORGE RD","CWPCity":"WARREN TWP","CWPState":"NJ","RegistryID":"110006620665","CWPNAICSCodes":null,"CWPTotalDesignFlowNmbr":0.8,"CWPActualAverageFlowNmbr":null,"CWPInspectionCount":5,"CWPSNCStatus":null,"CWPQtrsWithNC":4,"CWPE90Cnt":5,"CWPFormalEaCnt":null,"ElectrRptWaiverExpDate":null}},{"type":"Feature","geometry":{"type":"Point","coordinates":[-95.361,30.12913]},"properties":{"CWPName":" MONTGOMERY COUNTY MUD 105 WASTEWATER TREATMENT PLANT 1","SourceID":"TX0127400","CWPStreet":"4650 RILEY FUZZEL ROAD","CWPCity":"OAK RIDGE NORTH","CWPState":"TX","RegistryID":"110020547791","CWPNAICSCodes":null,"CWPTotalDesignFlowNmbr":0.9,"CWPActualAverageFlowNmbr":null,"CWPInspectionCount":1,"CWPSNCStatus":null,"CWPQtrsWithNC":2,"CWPE90Cnt":1,"CWPFormalEaCnt":null,"ElectrRptWaiverExpDate":null}},{"type":"Feature","geometry":{"type":"Point","coordinates":[-82.299045,38.42005]},"properties":{"CWPName":"\"A\" WASTEWATER TREATMENT PLANT UPGRADE","SourceID":"WVR111796","CWPStreet":"CR 60\/95","CWPCity":"HUNTINGTON","CWPState":"WV","RegistryID":"110071297191","CWPNAICSCodes":null,"CWPTotalDesignFlowNmbr":null,"CWPActualAverageFlowNmbr":null,"CWPInspectionCount":0,"CWPSNCStatus":null,"CWPQtrsWithNC":0,"CWPE90Cnt":0,"CWPFormalEaCnt":null,"ElectrRptWaiverExpDate":null}},{"type":"Feature","geometry":{"type":"Point","coordinates":[-99.753608,28.457887]},"properties":{"CWPName":"0.200 MGD WASTEWATER TREATMENT PLANT","SourceID":"TXR15062T","CWPStreet":"504 END STREET","CWPCity":"ASHERTON","CWPState":"TX","RegistryID":"110070392966","CWPNAICSCodes":null,"CWPTotalDesignFlowNmbr":null,"CWPActualAverageFlowNmbr":null,"CWPInspectionCount":0,"CWPSNCStatus":null,"CWPQtrsWithNC":0,"CWPE90Cnt":0,"CWPFormalEaCnt":null,"ElectrRptWaiverExpDate":null}},{"type":"Feature","geometry":{"type":"Point","coordinates":[-95.553418,30.120636]},"properties":{"CWPName":"1.5 MGD WASTEWATER TREATMENT FACILITY 55 MGD EXP","SourceID":"TXR1541NX","CWPStreet":"24770 KUYKENDAHL ROAD","CWPCity":"SPRING","CWPState":"TX","RegistryID":"110071505294","CWPNAICSCodes":null,"CWPTotalDesignFlowNmbr":null,"CWPActualAverageFlowNmbr":null,"CWPInspectionCount":0,"CWPSNCStatus":null,"CWPQtrsWithNC":0,"CWPE90Cnt":0,"CWPFormalEaCnt":null,"ElectrRptWaiverExpDate":null}},{"type":"Feature","geometry":{"type":"Point","coordinates":[-81.229444,32.766389]},"properties":{"CWPName":"18- INCH GRAVITY WASTEWATER TRUNK LINE REPLACEMENT","SourceID":"SCR10ZHGP","CWPStreet":"TOWN OF ESTILL WWTP TO THE CORNER OF RHODES DRIVE","CWPCity":"ESTILL","CWPState":"SC","RegistryID":"110071942899","CWPNAICSCodes":null,"CWPTotalDesignFlowNmbr":null,"CWPActualAverageFlowNmbr":null,"CWPInspectionCount":0,"CWPSNCStatus":null,"CWPQtrsWithNC":0,"CWPE90Cnt":0,"CWPFormalEaCnt":null,"ElectrRptWaiverExpDate":null}},{"type":"Feature","geometry":{"type":"Point","coordinates":[-83.117704,34.422377]},"properties":{"CWPName":"2020 COLLECTION SYSTEM IMPROVEMENTS","SourceID":"GAR248B82","CWPStreet":"136 ALLEN FARM ROAD","CWPCity":"LAVONIA","CWPState":"GA","RegistryID":"110070566988","CWPNAICSCodes":"237110 237130","CWPTotalDesignFlowNmbr":null,"CWPActualAverageFlowNmbr":null,"CWPInspectionCount":0,"CWPSNCStatus":null,"CWPQtrsWithNC":0,"CWPE90Cnt":0,"CWPFormalEaCnt":null,"ElectrRptWaiverExpDate":null}},{"type":"Feature","geometry":{"type":"Point","coordinates":[-115.9802,46.1401]},"properties":{"CWPName":"2022 WASTEWATER COLLECTION SYSTEM IMPROVEMENTS","SourceID":"IDR10I02V","CWPStreet":"VARIOUS STREETS","CWPCity":"KOOSKIA","CWPState":"ID","RegistryID":"110071438270","CWPNAICSCodes":null,"CWPTotalDesignFlowNmbr":null,"CWPActualAverageFlowNmbr":null,"CWPInspectionCount":0,"CWPSNCStatus":null,"CWPQtrsWithNC":0,"CWPE90Cnt":0,"CWPFormalEaCnt":null,"ElectrRptWaiverExpDate":null}},{"type":"Feature","geometry":{"type":"Point","coordinates":[-78.429775,35.506255]},"properties":{"CWPName":"210 WASTEWATER TREATMENT FACILITY","SourceID":"NCG110165","CWPStreet":"409 COUNTY HOME RD","CWPCity":"SMITHFIELD","CWPState":"NC","RegistryID":"110071815419","CWPNAICSCodes":null,"CWPTotalDesignFlowNmbr":0,"CWPActualAverageFlowNmbr":null,"CWPInspectionCount":0,"CWPSNCStatus":null,"CWPQtrsWithNC":0,"CWPE90Cnt":0,"CWPFormalEaCnt":null,"ElectrRptWaiverExpDate":null}},{"type":"Feature","geometry":{"type":"Point","coordinates":[-78.42975,35.50763]},"properties":{"CWPName":"210 WASTEWATER TREATMENT FACILITY EFFLUENT FORCE MAIN AND DECHLORINATION FA","SourceID":"NCC230209","CWPStreet":"684 COUNTY HOME RD","CWPCity":"SMITHFIELD","CWPState":"NC","RegistryID":"110071933751","CWPNAICSCodes":null,"CWPTotalDesignFlowNmbr":0,"CWPActualAverageFlowNmbr":null,"CWPInspectionCount":0,"CWPSNCStatus":null,"CWPQtrsWithNC":0,"CWPE90Cnt":0,"CWPFormalEaCnt":null,"ElectrRptWaiverExpDate":null}},{"type":"Feature","geometry":{"type":"Point","coordinates":[-112.10627,33.42424]},"properties":{"CWPName":"23RD AVENUE WASTEWATER TREATMENT PLANT","SourceID":"AZMS66154","CWPStreet":"2470 S 22ND AVE","CWPCity":"PHOENIX","CWPState":"AZ","RegistryID":"110000509851","CWPNAICSCodes":null,"CWPTotalDesignFlowNmbr":null,"CWPActualAverageFlowNmbr":null,"CWPInspectionCount":0,"CWPSNCStatus":null,"CWPQtrsWithNC":0,"CWPE90Cnt":0,"CWPFormalEaCnt":null,"ElectrRptWaiverExpDate":null}},{"type":"Feature","geometry":{"type":"Point","coordinates":[-98.64637,29.34724]},"properties":{"CWPName":"24 WASTEWATER LINE - SAWS 12-2512","SourceID":"TXR15794H","CWPStreet":"24 WASTEWATER LINE - BEGINNING AT COVEL ROAD AT TH","CWPCity":"SAN ANTONIO","CWPState":"TX","RegistryID":"110070371689","CWPNAICSCodes":null,"CWPTotalDesignFlowNmbr":null,"CWPActualAverageFlowNmbr":null,"CWPInspectionCount":0,"CWPSNCStatus":null,"CWPQtrsWithNC":0,"CWPE90Cnt":0,"CWPFormalEaCnt":null,"ElectrRptWaiverExpDate":null}},{"type":"Feature","geometry":{"type":"Point","coordinates":[-97.71087,30.67226]},"properties":{"CWPName":"3 B & J WWTP 1","SourceID":"TX0131679","CWPStreet":"UNKNOWN","CWPCity":"WILLIAMSON COUNTY","CWPState":"TX","RegistryID":"110038372249","CWPNAICSCodes":null,"CWPTotalDesignFlowNmbr":null,"CWPActualAverageFlowNmbr":null,"CWPInspectionCount":0,"CWPSNCStatus":null,"CWPQtrsWithNC":0,"CWPE90Cnt":0,"CWPFormalEaCnt":null,"ElectrRptWaiverExpDate":null}},{"type":"Feature","geometry":{"type":"Point","coordinates":[-97.833859,27.523103]},"properties":{"CWPName":"3MGD NORTH WASTEWATER TREATMENT PLANT","SourceID":"TXR05FG07","CWPStreet":"2801 E SANTA GERTRUDIS ST","CWPCity":"KINGSVILLE","CWPState":"TX","RegistryID":"110071157789","CWPNAICSCodes":null,"CWPTotalDesignFlowNmbr":null,"CWPActualAverageFlowNmbr":null,"CWPInspectionCount":0,"CWPSNCStatus":null,"CWPQtrsWithNC":0,"CWPE90Cnt":0,"CWPFormalEaCnt":null,"ElectrRptWaiverExpDate":null}},{"type":"Feature","geometry":{"type":"Point","coordinates":[-107.3501,45.2818]},"properties":{"CWPName":"40 MILE COLONY WASTEWATER DEVELOPMENT","SourceID":"MTR10I02A","CWPStreet":"1641 40 MILE ROAD","CWPCity":"LODGE GRASS","CWPState":"MT","RegistryID":"110070568207","CWPNAICSCodes":null,"CWPTotalDesignFlowNmbr":null,"CWPActualAverageFlowNmbr":null,"CWPInspectionCount":0,"CWPSNCStatus":null,"CWPQtrsWithNC":0,"CWPE90Cnt":0,"CWPFormalEaCnt":null,"ElectrRptWaiverExpDate":null}},{"type":"Feature","geometry":{"type":"Point","coordinates":[-98.390833,29.765555]},"properties":{"CWPName":"4S RANCH WASTEWATER TREATMENT FACILITY","SourceID":"TXR15825J","CWPStreet":"6,500 FT N-NE OF THE INTERX OF SMITHSON VALLEY ROA","CWPCity":"BULVERDE","CWPState":"TX","RegistryID":"110070355697","CWPNAICSCodes":null,"CWPTotalDesignFlowNmbr":null,"CWPActualAverageFlowNmbr":null,"CWPInspectionCount":0,"CWPSNCStatus":null,"CWPQtrsWithNC":0,"CWPE90Cnt":0,"CWPFormalEaCnt":null,"ElectrRptWaiverExpDate":null}},{"type":"Feature","geometry":{"type":"Point","coordinates":[-95.29791,29.75579]},"properties":{"CWPName":"69TH ST WWTP","SourceID":"TX0096172","CWPStreet":"2525 S. SGT. MACARIO GARCIA ON","CWPCity":"HOUSTON","CWPState":"TX","RegistryID":"110041047505","CWPNAICSCodes":null,"CWPTotalDesignFlowNmbr":200,"CWPActualAverageFlowNmbr":null,"CWPInspectionCount":3,"CWPSNCStatus":null,"CWPQtrsWithNC":1,"CWPE90Cnt":24,"CWPFormalEaCnt":1,"ElectrRptWaiverExpDate":null}},{"type":"Feature","geometry":{"type":"Point","coordinates":[-95.29791,29.75579]},"properties":{"CWPName":"69TH STREET WASTEWATER TREATMENT FACILITIES","SourceID":"TXR05K229","CWPStreet":"2525 SSGT MACARIO GARCIA DR","CWPCity":"HOUSTON","CWPState":"TX","RegistryID":"110041047505","CWPNAICSCodes":null,"CWPTotalDesignFlowNmbr":null,"CWPActualAverageFlowNmbr":null,"CWPInspectionCount":0,"CWPSNCStatus":null,"CWPQtrsWithNC":0,"CWPE90Cnt":0,"CWPFormalEaCnt":null,"ElectrRptWaiverExpDate":null}},{"type":"Feature","geometry":{"type":"Point","coordinates":[-105.186653,40.048596]},"properties":{"CWPName":"75 ST WWTF","SourceID":"COR900986","CWPStreet":"4049 N 75 ST","CWPCity":"BOULDER","CWPState":"CO","RegistryID":"110013399866","CWPNAICSCodes":null,"CWPTotalDesignFlowNmbr":null,"CWPActualAverageFlowNmbr":null,"CWPInspectionCount":1,"CWPSNCStatus":null,"CWPQtrsWithNC":0,"CWPE90Cnt":0,"CWPFormalEaCnt":null,"ElectrRptWaiverExpDate":null}},{"type":"Feature","geometry":{"type":"Point","coordinates":[-105.186653,40.048596]},"properties":{"CWPName":"75TH ST WWTP","SourceID":"CO0024147","CWPStreet":"4049 N 75 ST","CWPCity":"BOULDER","CWPState":"CO","RegistryID":"110013399866","CWPNAICSCodes":null,"CWPTotalDesignFlowNmbr":25,"CWPActualAverageFlowNmbr":null,"CWPInspectionCount":2,"CWPSNCStatus":null,"CWPQtrsWithNC":1,"CWPE90Cnt":0,"CWPFormalEaCnt":null,"ElectrRptWaiverExpDate":null}},{"type":"Feature","geometry":{"type":"Point","coordinates":[-94.452217,38.964312]},"properties":{"CWPName":"87TH ST WASTEWATER EQUALIZATION BASIN","SourceID":"MORA27303","CWPStreet":"10912 E 87TH ST","CWPCity":"RAYTOWN","CWPState":"MO","RegistryID":"110071867286","CWPNAICSCodes":null,"CWPTotalDesignFlowNmbr":null,"CWPActualAverageFlowNmbr":null,"CWPInspectionCount":0,"CWPSNCStatus":null,"CWPQtrsWithNC":0,"CWPE90Cnt":0,"CWPFormalEaCnt":null,"ElectrRptWaiverExpDate":null}},{"type":"Feature","geometry":{"type":"Point","coordinates":[-112.25431,33.39359]},"properties":{"CWPName":"91ST AVENUE WASTE WATER TREATMENT PLANT","SourceID":"AZMS66176","CWPStreet":"5615 S 91ST AVE","CWPCity":"TOLLESON","CWPState":"AZ","RegistryID":"110000510144","CWPNAICSCodes":null,"CWPTotalDesignFlowNmbr":null,"CWPActualAverageFlowNmbr":null,"CWPInspectionCount":0,"CWPSNCStatus":null,"CWPQtrsWithNC":0,"CWPE90Cnt":0,"CWPFormalEaCnt":null,"ElectrRptWaiverExpDate":null}},{"type":"Feature","geometry":{"type":"Point","coordinates":[-112.16975,33.70499]},"properties":{"CWPName":"925 - NORTHWEST WASTEWATER","SourceID":"AZC103583","CWPStreet":"NO ADDRESS ON FILE","CWPCity":"UNKNOWN","CWPState":"AZ","RegistryID":"110071709515","CWPNAICSCodes":null,"CWPTotalDesignFlowNmbr":null,"CWPActualAverageFlowNmbr":null,"CWPInspectionCount":0,"CWPSNCStatus":null,"CWPQtrsWithNC":0,"CWPE90Cnt":0,"CWPFormalEaCnt":null,"ElectrRptWaiverExpDate":null}},{"type":"Feature","geometry":{"type":"Point","coordinates":[-87.975131,41.920908]},"properties":{"CWPName":"A.J. LAROCCA WASTEWATER TREATMENT FACILITY","SourceID":"IL0027367","CWPStreet":"333 SOUTH VILLA AVENUE","CWPCity":"ADDISON","CWPState":"IL","RegistryID":"110018068810","CWPNAICSCodes":null,"CWPTotalDesignFlowNmbr":8,"CWPActualAverageFlowNmbr":3.2,"CWPInspectionCount":3,"CWPSNCStatus":null,"CWPQtrsWithNC":1,"CWPE90Cnt":0,"CWPFormalEaCnt":null,"ElectrRptWaiverExpDate":null}},{"type":"Feature","geometry":{"type":"Point","coordinates":[-84.267334,39.538086]},"properties":{"CWPName":"AAA WASTEWATER SERVICES INC","SourceID":"OH0133604","CWPStreet":"3677 ANTHONY LN","CWPCity":"FRANKLIN","CWPState":"OH","RegistryID":"110044273434","CWPNAICSCodes":null,"CWPTotalDesignFlowNmbr":null,"CWPActualAverageFlowNmbr":null,"CWPInspectionCount":0,"CWPSNCStatus":null,"CWPQtrsWithNC":9,"CWPE90Cnt":0,"CWPFormalEaCnt":1,"ElectrRptWaiverExpDate":null}},{"type":"Feature","geometry":{"type":"Point","coordinates":[-82.345,34.155833]},"properties":{"CWPName":"ABBEVILLE LONG CANE CREEK WWTF","SourceID":"SC0040614","CWPStreet":"542 BROOKSIDE DRIVE","CWPCity":"ABBEVILLE","CWPState":"SC","RegistryID":"110000541682","CWPNAICSCodes":null,"CWPTotalDesignFlowNmbr":null,"CWPActualAverageFlowNmbr":null,"CWPInspectionCount":4,"CWPSNCStatus":null,"CWPQtrsWithNC":3,"CWPE90Cnt":2,"CWPFormalEaCnt":1,"ElectrRptWaiverExpDate":null}},{"type":"Feature","geometry":{"type":"Point","coordinates":[-92.117076,29.969882]},"properties":{"CWPName":"ABBEVILLE, CITY OF","SourceID":"LA0039748","CWPStreet":"1908 E. LAFAYETTE STREET","CWPCity":"ABBEVILLE","CWPState":"LA","RegistryID":"110000732422","CWPNAICSCodes":null,"CWPTotalDesignFlowNmbr":1.6,"CWPActualAverageFlowNmbr":null,"CWPInspectionCount":2,"CWPSNCStatus":null,"CWPQtrsWithNC":2,"CWPE90Cnt":2,"CWPFormalEaCnt":1,"ElectrRptWaiverExpDate":null}},{"type":"Feature","geometry":{"type":"Point","coordinates":[-90.31088,44.94196]},"properties":{"CWPName":"ABBOTSFORD WASTEWATER TREATMENT FACILITY","SourceID":"WI0023141","CWPStreet":"504 E LINDEN ST PO BOX 589","CWPCity":"ABBOTSFORD","CWPState":"WI","RegistryID":"110005527769","CWPNAICSCodes":null,"CWPTotalDesignFlowNmbr":0.207,"CWPActualAverageFlowNmbr":0.323,"CWPInspectionCount":1,"CWPSNCStatus":null,"CWPQtrsWithNC":6,"CWPE90Cnt":4,"CWPFormalEaCnt":null,"ElectrRptWaiverExpDate":null}},{"type":"Feature","geometry":{"type":"Point","coordinates":[-76.15004,39.51003]},"properties":{"CWPName":"ABERDEEN ADVANCED WASTEWATER TREATMENT PLANT","SourceID":"MDR002142","CWPStreet":"361 MICHAEL LANE","CWPCity":"ABERDEEN","CWPState":"MD","RegistryID":"110019864663","CWPNAICSCodes":null,"CWPTotalDesignFlowNmbr":null,"CWPActualAverageFlowNmbr":null,"CWPInspectionCount":2,"CWPSNCStatus":null,"CWPQtrsWithNC":0,"CWPE90Cnt":0,"CWPFormalEaCnt":null,"ElectrRptWaiverExpDate":null}},{"type":"Feature","geometry":{"type":"Point","coordinates":[-76.15004,39.51003]},"properties":{"CWPName":"ABERDEEN ADVANCED WWTP","SourceID":"MD0021563","CWPStreet":"60 N. PARKE STREET","CWPCity":"ABERDEEN","CWPState":"MD","RegistryID":"110019864663","CWPNAICSCodes":null,"CWPTotalDesignFlowNmbr":4,"CWPActualAverageFlowNmbr":null,"CWPInspectionCount":6,"CWPSNCStatus":null,"CWPQtrsWithNC":11,"CWPE90Cnt":0,"CWPFormalEaCnt":null,"ElectrRptWaiverExpDate":null}},{"type":"Feature","geometry":{"type":"Point","coordinates":[-76.1451050248763,39.4872300805047]},"properties":{"CWPName":"ABERDEEN AREA WASTEWATER TREATMENT PLANT - APG","SourceID":"MDR002482","CWPStreet":"ABERDEEN PROVING GROUND","CWPCity":"ABERDEEN PROVING GROUND","CWPState":"MD","RegistryID":"110063612130","CWPNAICSCodes":null,"CWPTotalDesignFlowNmbr":null,"CWPActualAverageFlowNmbr":null,"CWPInspectionCount":0,"CWPSNCStatus":null,"CWPQtrsWithNC":0,"CWPE90Cnt":0,"CWPFormalEaCnt":null,"ElectrRptWaiverExpDate":null}},{"type":"Feature","geometry":{"type":"Point","coordinates":[-123.829651,46.964652]},"properties":{"CWPName":"ABERDEEN STP","SourceID":"WA0037192","CWPStreet":"1205 W STATE ST","CWPCity":"ABERDEEN","CWPState":"WA","RegistryID":"110005311741","CWPNAICSCodes":null,"CWPTotalDesignFlowNmbr":19.8,"CWPActualAverageFlowNmbr":null,"CWPInspectionCount":5,"CWPSNCStatus":null,"CWPQtrsWithNC":12,"CWPE90Cnt":0,"CWPFormalEaCnt":null,"ElectrRptWaiverExpDate":null}},{"type":"Feature","geometry":{"type":"Point","coordinates":[-123.829651,46.964652]},"properties":{"CWPName":"ABERDEEN WWTP","SourceID":"WAR125101","CWPStreet":"1205 W STATE ST","CWPCity":"ABERDEEN","CWPState":"WA","RegistryID":"110005311741","CWPNAICSCodes":"221320","CWPTotalDesignFlowNmbr":null,"CWPActualAverageFlowNmbr":null,"CWPInspectionCount":2,"CWPSNCStatus":null,"CWPQtrsWithNC":12,"CWPE90Cnt":0,"CWPFormalEaCnt":null,"ElectrRptWaiverExpDate":null}},{"type":"Feature","geometry":{"type":"Point","coordinates":[-97.20107,38.90065]},"properties":{"CWPName":"ABILENE, CITY OF (WWTP)","SourceID":"KS0098647","CWPStreet":"1014 2100 AVE","CWPCity":"ABILENE","CWPState":"KS","RegistryID":"110017525962","CWPNAICSCodes":"221320 488119","CWPTotalDesignFlowNmbr":null,"CWPActualAverageFlowNmbr":null,"CWPInspectionCount":4,"CWPSNCStatus":null,"CWPQtrsWithNC":5,"CWPE90Cnt":9,"CWPFormalEaCnt":null,"ElectrRptWaiverExpDate":null}},{"type":"Feature","geometry":{"type":"Point","coordinates":[-75.67005,41.46751]},"properties":{"CWPName":"ABINGTON REGIONAL WASTEWATER AUTHORITY","SourceID":"PA0028576","CWPStreet":"200 NORTHERN BLVD","CWPCity":"CHINCHILLA","CWPState":"PA","RegistryID":"110063914723","CWPNAICSCodes":null,"CWPTotalDesignFlowNmbr":3.34,"CWPActualAverageFlowNmbr":null,"CWPInspectionCount":3,"CWPSNCStatus":null,"CWPQtrsWithNC":5,"CWPE90Cnt":5,"CWPFormalEaCnt":null,"ElectrRptWaiverExpDate":null}},{"type":"Feature","geometry":{"type":"Point","coordinates":[-90.048141,30.470783]},"properties":{"CWPName":"ABITA SPRINGS, TOWN OF -WASTEWATER TREATMENT FACILITY","SourceID":"LA0032352","CWPStreet":"END OF ORME STREET","CWPCity":"ABITA SPRINGS","CWPState":"LA","RegistryID":"110010595962","CWPNAICSCodes":null,"CWPTotalDesignFlowNmbr":0.12,"CWPActualAverageFlowNmbr":null,"CWPInspectionCount":1,"CWPSNCStatus":"Effluent - Monthly Average Limit","CWPQtrsWithNC":12,"CWPE90Cnt":81,"CWPFormalEaCnt":2,"ElectrRptWaiverExpDate":null}},{"type":"Feature","geometry":{"type":"Point","coordinates":[-92.14195,30.21686]},"properties":{"CWPName":"ACADIANA WATER & SEWAGE","SourceID":"LAG540983","CWPStreet":"1307 SOUTH FIELDSPAN","CWPCity":"DUSON","CWPState":"LA","RegistryID":"110022873087","CWPNAICSCodes":null,"CWPTotalDesignFlowNmbr":null,"CWPActualAverageFlowNmbr":null,"CWPInspectionCount":0,"CWPSNCStatus":null,"CWPQtrsWithNC":0,"CWPE90Cnt":0,"CWPFormalEaCnt":null,"ElectrRptWaiverExpDate":null}},{"type":"Feature","geometry":{"type":"Point","coordinates":[-107.5592,35.059]},"properties":{"CWPName":"ACOMITA WASTEWATER TREATMENT PLANT, PH2","SourceID":"NMR10I07F","CWPStreet":"END OF UNNAMED SERVICE ROAD OFF OF PUEBLO ROAD","CWPCity":"ACOMITA","CWPState":"NM","RegistryID":"110071335817","CWPNAICSCodes":null,"CWPTotalDesignFlowNmbr":null,"CWPActualAverageFlowNmbr":null,"CWPInspectionCount":0,"CWPSNCStatus":null,"CWPQtrsWithNC":0,"CWPE90Cnt":0,"CWPFormalEaCnt":null,"ElectrRptWaiverExpDate":null}},{"type":"Feature","geometry":{"type":"Point","coordinates":[-92.216389,34.735278]},"properties":{"CWPName":"ADAMS FIELD WATER RECLAMATION FACILITY","SourceID":"ARR00A001","CWPStreet":"1001 TEMPLE ST.","CWPCity":"LITTLE ROCK","CWPState":"AR","RegistryID":"110000520589","CWPNAICSCodes":"221320","CWPTotalDesignFlowNmbr":null,"CWPActualAverageFlowNmbr":null,"CWPInspectionCount":1,"CWPSNCStatus":null,"CWPQtrsWithNC":0,"CWPE90Cnt":0,"CWPFormalEaCnt":null,"ElectrRptWaiverExpDate":null}},{"type":"Feature","geometry":{"type":"Point","coordinates":[-73.108628,42.644677]},"properties":{"CWPName":"ADAMS W W T P","SourceID":"MAG590009","CWPStreet":"273 COLUMBIA STREET","CWPCity":"ADAMS","CWPState":"MA","RegistryID":"110000761113","CWPNAICSCodes":null,"CWPTotalDesignFlowNmbr":null,"CWPActualAverageFlowNmbr":null,"CWPInspectionCount":0,"CWPSNCStatus":null,"CWPQtrsWithNC":0,"CWPE90Cnt":0,"CWPFormalEaCnt":null,"ElectrRptWaiverExpDate":null}},{"type":"Feature","geometry":{"type":"Point","coordinates":[-89.830111,43.977139]},"properties":{"CWPName":"ADAMS WASTEWATER TREATMENT FACILITY","SourceID":"WI0023159","CWPStreet":"1002 WEST LAKE ST, VILLAGE OF FRIENDSHIP, WI","CWPCity":"FRIENDSHIP","CWPState":"WI","RegistryID":"110010894498","CWPNAICSCodes":null,"CWPTotalDesignFlowNmbr":0.3,"CWPActualAverageFlowNmbr":0.436,"CWPInspectionCount":1,"CWPSNCStatus":null,"CWPQtrsWithNC":3,"CWPE90Cnt":31,"CWPFormalEaCnt":null,"ElectrRptWaiverExpDate":null}},{"type":"Feature","geometry":{"type":"Point","coordinates":[-96.493306,40.453583]},"properties":{"CWPName":"ADAMS WASTEWATER TREATMENT FACILITY","SourceID":"NE0045055","CWPStreet":"3RD STREET,   P.O. BOX  41","CWPCity":"ADAMS","CWPState":"NE","RegistryID":"110009163118","CWPNAICSCodes":null,"CWPTotalDesignFlowNmbr":0.06,"CWPActualAverageFlowNmbr":0.3,"CWPInspectionCount":1,"CWPSNCStatus":null,"CWPQtrsWithNC":0,"CWPE90Cnt":0,"CWPFormalEaCnt":null,"ElectrRptWaiverExpDate":null}},{"type":"Feature","geometry":{"type":"Point","coordinates":[-94.353936,38.407307]},"properties":{"CWPName":"ADRIAN WASTEWATER LAGOON","SourceID":"MO0112623","CWPStreet":"WEST 8TH STREET","CWPCity":"ADRIAN","CWPState":"MO","RegistryID":"110009870853","CWPNAICSCodes":null,"CWPTotalDesignFlowNmbr":null,"CWPActualAverageFlowNmbr":null,"CWPInspectionCount":2,"CWPSNCStatus":"Failure to Report DMR - Not Received","CWPQtrsWithNC":12,"CWPE90Cnt":41,"CWPFormalEaCnt":null,"ElectrRptWaiverExpDate":null}},{"type":"Feature","geometry":{"type":"Point","coordinates":[-84.015278,41.917222]},"properties":{"CWPName":"ADRIAN WWTP","SourceID":"MI0022152","CWPStreet":"1001 OAKWOOD RD.","CWPCity":"ADRIAN","CWPState":"MI","RegistryID":"110009026767","CWPNAICSCodes":"221320","CWPTotalDesignFlowNmbr":null,"CWPActualAverageFlowNmbr":null,"CWPInspectionCount":4,"CWPSNCStatus":null,"CWPQtrsWithNC":11,"CWPE90Cnt":1,"CWPFormalEaCnt":null,"ElectrRptWaiverExpDate":null}},{"type":"Feature","geometry":{"type":"Point","coordinates":[-105.57797,33.33109]},"properties":{"CWPName":"AGUA FIRA ESTATES WASTEWATER COLLECTION PHASE III","SourceID":"NMR1000GO","CWPStreet":"AGUA FRIA DRIVE","CWPCity":"RUIDOSO DOWNS","CWPState":"NM","RegistryID":"110070066717","CWPNAICSCodes":null,"CWPTotalDesignFlowNmbr":null,"CWPActualAverageFlowNmbr":null,"CWPInspectionCount":0,"CWPSNCStatus":null,"CWPQtrsWithNC":0,"CWPE90Cnt":0,"CWPFormalEaCnt":null,"ElectrRptWaiverExpDate":null}},{"type":"Feature","geometry":{"type":"Point","coordinates":[-106.008172,35.659656]},"properties":{"CWPName":"AGUA FRIA WASTEWATER IMPROVEMENTS","SourceID":"NMR1004HS","CWPStreet":"AGUA FRIA STREET - VARIOUS ROADS FROM AGUA FRIA","CWPCity":"SANTA FE","CWPState":"NM","RegistryID":"110071221837","CWPNAICSCodes":null,"CWPTotalDesignFlowNmbr":null,"CWPActualAverageFlowNmbr":null,"CWPInspectionCount":0,"CWPSNCStatus":null,"CWPQtrsWithNC":0,"CWPE90Cnt":0,"CWPFormalEaCnt":null,"ElectrRptWaiverExpDate":null}},{"type":"Feature","geometry":{"type":"Point","coordinates":[-106.0147,35.6657]},"properties":{"CWPName":"AGUA FRIA WASTEWATER PHII","SourceID":"NMR1006MD","CWPStreet":"RAMON LN, ANB LN, PAMYEUTILIA LN, TERRAZAS LN","CWPCity":"AGUA FRIA","CWPState":"NM","RegistryID":"110071822827","CWPNAICSCodes":null,"CWPTotalDesignFlowNmbr":null,"CWPActualAverageFlowNmbr":null,"CWPInspectionCount":0,"CWPSNCStatus":null,"CWPQtrsWithNC":0,"CWPE90Cnt":0,"CWPFormalEaCnt":null,"ElectrRptWaiverExpDate":null}},{"type":"Feature","geometry":{"type":"Point","coordinates":[-98.392195,26.235817]},"properties":{"CWPName":"AGUA SUDS WASTEWATER CONVEYANCE SYSTEM LIFT STATION & FM","SourceID":"TXR15123U","CWPStreet":"605 S GOODWIN RD","CWPCity":"MISSION","CWPState":"TX","RegistryID":"110070505642","CWPNAICSCodes":null,"CWPTotalDesignFlowNmbr":null,"CWPActualAverageFlowNmbr":null,"CWPInspectionCount":0,"CWPSNCStatus":null,"CWPQtrsWithNC":0,"CWPE90Cnt":0,"CWPFormalEaCnt":null,"ElectrRptWaiverExpDate":null}},{"type":"Feature","geometry":{"type":"Point","coordinates":[-67.181193,18.391659]},"properties":{"CWPName":"AGUADILLA WWTP","SourceID":"PRR053061","CWPStreet":"ROAD #115, KM. 25.0, ASOMANTE WARD","CWPCity":"AGUADA","CWPState":"PR","RegistryID":"110010636776","CWPNAICSCodes":null,"CWPTotalDesignFlowNmbr":null,"CWPActualAverageFlowNmbr":null,"CWPInspectionCount":0,"CWPSNCStatus":null,"CWPQtrsWithNC":0,"CWPE90Cnt":0,"CWPFormalEaCnt":null,"ElectrRptWaiverExpDate":null}},{"type":"Feature","geometry":{"type":"Point","coordinates":[-116.319683,46.500992]},"properties":{"CWPName":"AHSAHKA WATER AND SEWER DISTRICT - WWTF","SourceID":"ID0025224","CWPStreet":"HIGHWAY 7 (NEZ PERCE RESERVATION)","CWPCity":"AHSAHKA","CWPState":"ID","RegistryID":"110010026774","CWPNAICSCodes":null,"CWPTotalDesignFlowNmbr":0.075,"CWPActualAverageFlowNmbr":null,"CWPInspectionCount":1,"CWPSNCStatus":null,"CWPQtrsWithNC":12,"CWPE90Cnt":3,"CWPFormalEaCnt":1,"ElectrRptWaiverExpDate":null}},{"type":"Feature","geometry":{"type":"Point","coordinates":[-155.944841,19.567027]},"properties":{"CWPName":"AINAMALU(2)","SourceID":"HIF012851","CWPStreet":"UNKNOWN","CWPCity":"UNKNOWN","CWPState":"HI","RegistryID":"110039177459","CWPNAICSCodes":null,"CWPTotalDesignFlowNmbr":null,"CWPActualAverageFlowNmbr":null,"CWPInspectionCount":1,"CWPSNCStatus":null,"CWPQtrsWithNC":11,"CWPE90Cnt":0,"CWPFormalEaCnt":1,"ElectrRptWaiverExpDate":null}},{"type":"Feature","geometry":{"type":"Point","coordinates":[-99.8626,42.5541]},"properties":{"CWPName":"AINSWORTH WASTEWATER TREATMENT FACILITY","SourceID":"NE0112267","CWPStreet":"950 NORTH MAIN STREET","CWPCity":"AINSWORTH","CWPState":"NE","RegistryID":"110008951027","CWPNAICSCodes":null,"CWPTotalDesignFlowNmbr":0.25,"CWPActualAverageFlowNmbr":null,"CWPInspectionCount":1,"CWPSNCStatus":null,"CWPQtrsWithNC":4,"CWPE90Cnt":9,"CWPFormalEaCnt":null,"ElectrRptWaiverExpDate":null}},{"type":"Feature","geometry":{"type":"Point","coordinates":[-155.944841,19.567027]},"properties":{"CWPName":"AIR VENTURES HAWAII, LLC - HANGAR 2B","SourceID":"HI24BH511","CWPStreet":"UNKNOWN","CWPCity":"UNKNOWN","CWPState":"HI","RegistryID":"110039177459","CWPNAICSCodes":null,"CWPTotalDesignFlowNmbr":null,"CWPActualAverageFlowNmbr":null,"CWPInspectionCount":0,"CWPSNCStatus":null,"CWPQtrsWithNC":0,"CWPE90Cnt":0,"CWPFormalEaCnt":null,"ElectrRptWaiverExpDate":null}},{"type":"Feature","geometry":{"type":"Point","coordinates":[-94.847895,29.269986]},"properties":{"CWPName":"AIRPORT WASTEWATER PLANT","SourceID":"TXR05GM97","CWPStreet":"7618 MUSTANG DRIVE","CWPCity":"GALVESTON","CWPState":"TX","RegistryID":"110033518995","CWPNAICSCodes":null,"CWPTotalDesignFlowNmbr":null,"CWPActualAverageFlowNmbr":null,"CWPInspectionCount":0,"CWPSNCStatus":null,"CWPQtrsWithNC":0,"CWPE90Cnt":0,"CWPFormalEaCnt":null,"ElectrRptWaiverExpDate":null}},{"type":"Feature","geometry":{"type":"Point","coordinates":[-94.848428,29.270882]},"properties":{"CWPName":"AIRPORT WWTP","SourceID":"TX0027791","CWPStreet":"7618 MUSTANG DR","CWPCity":"GALVESTON","CWPState":"TX","RegistryID":"110000502457","CWPNAICSCodes":null,"CWPTotalDesignFlowNmbr":3.75,"CWPActualAverageFlowNmbr":3.75,"CWPInspectionCount":4,"CWPSNCStatus":null,"CWPQtrsWithNC":6,"CWPE90Cnt":11,"CWPFormalEaCnt":null,"ElectrRptWaiverExpDate":null}},{"type":"Feature","geometry":{"type":"Point","coordinates":[-155.944841,19.567027]},"properties":{"CWPName":"ALA MOANA BOULEVARD ELEVATED PEDESTRIAN WALKWAY (2)","SourceID":"HIF013430","CWPStreet":"UNKNOWN","CWPCity":"UNKNOWN","CWPState":"HI","RegistryID":"110039177459","CWPNAICSCodes":null,"CWPTotalDesignFlowNmbr":null,"CWPActualAverageFlowNmbr":null,"CWPInspectionCount":0,"CWPSNCStatus":null,"CWPQtrsWithNC":0,"CWPE90Cnt":0,"CWPFormalEaCnt":null,"ElectrRptWaiverExpDate":null}},{"type":"Feature","geometry":{"type":"Point","coordinates":[-155.944841,19.567027]},"properties":{"CWPName":"ALA MOANA REGIONAL PARK (2)","SourceID":"HIF012552","CWPStreet":"UNKNOWN","CWPCity":"UNKNOWN","CWPState":"HI","RegistryID":"110039177459","CWPNAICSCodes":null,"CWPTotalDesignFlowNmbr":null,"CWPActualAverageFlowNmbr":null,"CWPInspectionCount":0,"CWPSNCStatus":null,"CWPQtrsWithNC":0,"CWPE90Cnt":0,"CWPFormalEaCnt":null,"ElectrRptWaiverExpDate":null}},{"type":"Feature","geometry":{"type":"Point","coordinates":[-155.944841,19.567027]},"properties":{"CWPName":"ALA MOANA REGIONAL PARK BEACH NOURISHMENT (2)","SourceID":"HIF012587","CWPStreet":"UNKNOWN","CWPCity":"UNKNOWN","CWPState":"HI","RegistryID":"110039177459","CWPNAICSCodes":null,"CWPTotalDesignFlowNmbr":null,"CWPActualAverageFlowNmbr":null,"CWPInspectionCount":0,"CWPSNCStatus":null,"CWPQtrsWithNC":0,"CWPE90Cnt":0,"CWPFormalEaCnt":null,"ElectrRptWaiverExpDate":null}},{"type":"Feature","geometry":{"type":"Point","coordinates":[-86.8154,33.2534]},"properties":{"CWPName":"ALABASTER WWTP","SourceID":"AL0025828","CWPStreet":"104 8TH AVENUE NW","CWPCity":"ALABASTER","CWPState":"AL","RegistryID":"110055975075","CWPNAICSCodes":"221320","CWPTotalDesignFlowNmbr":7.6,"CWPActualAverageFlowNmbr":4.47,"CWPInspectionCount":7,"CWPSNCStatus":null,"CWPQtrsWithNC":1,"CWPE90Cnt":1,"CWPFormalEaCnt":null,"ElectrRptWaiverExpDate":null}},{"type":"Feature","geometry":{"type":"Point","coordinates":[-73.730722,42.677222]},"properties":{"CWPName":"ALBANY COUNTY NORTH PLANT","SourceID":"NYR00B263","CWPStreet":"1 CANAL ROAD SOUTH","CWPCity":"MENANDS","CWPState":"NY","RegistryID":"110019445616","CWPNAICSCodes":null,"CWPTotalDesignFlowNmbr":null,"CWPActualAverageFlowNmbr":null,"CWPInspectionCount":3,"CWPSNCStatus":null,"CWPQtrsWithNC":1,"CWPE90Cnt":0,"CWPFormalEaCnt":null,"ElectrRptWaiverExpDate":null}},{"type":"Feature","geometry":{"type":"Point","coordinates":[-73.730722,42.677222]},"properties":{"CWPName":"ALBANY COUNTY SOUTH PLANT","SourceID":"NYR00B262","CWPStreet":"209 CHURCH STREET","CWPCity":"ALBANY","CWPState":"NY","RegistryID":"110019445616","CWPNAICSCodes":null,"CWPTotalDesignFlowNmbr":null,"CWPActualAverageFlowNmbr":null,"CWPInspectionCount":3,"CWPSNCStatus":null,"CWPQtrsWithNC":1,"CWPE90Cnt":0,"CWPFormalEaCnt":null,"ElectrRptWaiverExpDate":null}},{"type":"Feature","geometry":{"type":"Point","coordinates":[-73.730722,42.677222]},"properties":{"CWPName":"ALBANY COUNTY WATER PURIFICATION DISTRICT - NORTH WASTEWATER TREATMENT PLANT","SourceID":"NY0026875","CWPStreet":"1 CANAL ROAD SOUTH","CWPCity":"MENANDS","CWPState":"NY","RegistryID":"110019445616","CWPNAICSCodes":"221320","CWPTotalDesignFlowNmbr":35,"CWPActualAverageFlowNmbr":null,"CWPInspectionCount":5,"CWPSNCStatus":null,"CWPQtrsWithNC":9,"CWPE90Cnt":19,"CWPFormalEaCnt":2,"ElectrRptWaiverExpDate":null}},{"type":"Feature","geometry":{"type":"Point","coordinates":[-90.924575,30.285246]},"properties":{"CWPName":"ALBANY MHP","SourceID":"LAG541361","CWPStreet":"30544 STRAWBERRY LANE","CWPCity":"ALBANY","CWPState":"LA","RegistryID":"110035762662","CWPNAICSCodes":null,"CWPTotalDesignFlowNmbr":null,"CWPActualAverageFlowNmbr":null,"CWPInspectionCount":0,"CWPSNCStatus":null,"CWPQtrsWithNC":3,"CWPE90Cnt":4,"CWPFormalEaCnt":null,"ElectrRptWaiverExpDate":null}},{"type":"Feature","geometry":{"type":"Point","coordinates":[-89.434194,42.692306]},"properties":{"CWPName":"ALBANY WASTEWATER TREATMENT FACILITY","SourceID":"WI0021199","CWPStreet":"SOUTH MILL STREET, ALBANY, WISCONSIN","CWPCity":"ALBANY","CWPState":"WI","RegistryID":"110010889235","CWPNAICSCodes":null,"CWPTotalDesignFlowNmbr":0.12,"CWPActualAverageFlowNmbr":0.125,"CWPInspectionCount":1,"CWPSNCStatus":"Failure to Report DMR - Not Received","CWPQtrsWithNC":3,"CWPE90Cnt":0,"CWPFormalEaCnt":null,"ElectrRptWaiverExpDate":null}},{"type":"Feature","geometry":{"type":"Point","coordinates":[-94.34133,40.245348]},"properties":{"CWPName":"ALBANY WASTEWATER TREATMENT FACILITY","SourceID":"MORA25060","CWPStreet":"401 SOUTH BIRCH","CWPCity":"ALBANY","CWPState":"MO","RegistryID":"110070393292","CWPNAICSCodes":null,"CWPTotalDesignFlowNmbr":null,"CWPActualAverageFlowNmbr":null,"CWPInspectionCount":0,"CWPSNCStatus":null,"CWPQtrsWithNC":0,"CWPE90Cnt":0,"CWPFormalEaCnt":null,"ElectrRptWaiverExpDate":null}},{"type":"Feature","geometry":{"type":"Point","coordinates":[-93.30862,43.60589]},"properties":{"CWPName":"ALBERT LEA WWTP","SourceID":"MN0041092","CWPStreet":"17424 780TH AVE","CWPCity":"ALBERT LEA","CWPState":"MN","RegistryID":"110062620506","CWPNAICSCodes":null,"CWPTotalDesignFlowNmbr":18.38,"CWPActualAverageFlowNmbr":18.38,"CWPInspectionCount":4,"CWPSNCStatus":null,"CWPQtrsWithNC":3,"CWPE90Cnt":3,"CWPFormalEaCnt":2,"ElectrRptWaiverExpDate":null}},{"type":"Feature","geometry":{"type":"Point","coordinates":[-80.04086,40.47454]},"properties":{"CWPName":"ALCOSAN SEW SYS","SourceID":"PA0025984","CWPStreet":"3300 PREBLE AVE","CWPCity":"PITTSBURGH","CWPState":"PA","RegistryID":"110001085076","CWPNAICSCodes":null,"CWPTotalDesignFlowNmbr":250,"CWPActualAverageFlowNmbr":null,"CWPInspectionCount":12,"CWPSNCStatus":null,"CWPQtrsWithNC":4,"CWPE90Cnt":4,"CWPFormalEaCnt":null,"ElectrRptWaiverExpDate":null}},{"type":"Feature","geometry":{"type":"Point","coordinates":[-80.04086,40.47454]},"properties":{"CWPName":"ALCOSAN WET WEATHER PLANT EXPANSION","SourceID":"PAC020353","CWPStreet":"3300 PREBLE AVE","CWPCity":"PITTSBURGH, CITY OF","CWPState":"PA","RegistryID":"110001085076","CWPNAICSCodes":"221320","CWPTotalDesignFlowNmbr":null,"CWPActualAverageFlowNmbr":null,"CWPInspectionCount":0,"CWPSNCStatus":null,"CWPQtrsWithNC":4,"CWPE90Cnt":0,"CWPFormalEaCnt":null,"ElectrRptWaiverExpDate":null}},{"type":"Feature","geometry":{"type":"Point","coordinates":[-98.474,40.85626]},"properties":{"CWPName":"ALDA WASTEWATER TREATMENT FACILITY","SourceID":"NE0042056","CWPStreet":"6410 W HWY 30","CWPCity":"ALDA","CWPState":"NE","RegistryID":"110009114001","CWPNAICSCodes":null,"CWPTotalDesignFlowNmbr":0.093,"CWPActualAverageFlowNmbr":0.036,"CWPInspectionCount":3,"CWPSNCStatus":null,"CWPQtrsWithNC":0,"CWPE90Cnt":0,"CWPFormalEaCnt":null,"ElectrRptWaiverExpDate":null}},{"type":"Feature","geometry":{"type":"Point","coordinates":[-98.3082,38.2327]},"properties":{"CWPName":"ALDEN, CITY OF (WWTP)","SourceID":"KS0051641","CWPStreet":"UNKNOWN","CWPCity":"ALDEN","CWPState":"KS","RegistryID":"110011225209","CWPNAICSCodes":"221320","CWPTotalDesignFlowNmbr":null,"CWPActualAverageFlowNmbr":null,"CWPInspectionCount":0,"CWPSNCStatus":null,"CWPQtrsWithNC":9,"CWPE90Cnt":7,"CWPFormalEaCnt":null,"ElectrRptWaiverExpDate":null}},{"type":"Feature","geometry":{"type":"Point","coordinates":[-122.319149,47.878689]},"properties":{"CWPName":"ALDERWOOD STP","SourceID":"WAG994579","CWPStreet":"6315 PICNIC PT RD","CWPCity":"EDMONDS","CWPState":"WA","RegistryID":"110039931394","CWPNAICSCodes":null,"CWPTotalDesignFlowNmbr":null,"CWPActualAverageFlowNmbr":null,"CWPInspectionCount":0,"CWPSNCStatus":null,"CWPQtrsWithNC":1,"CWPE90Cnt":0,"CWPFormalEaCnt":null,"ElectrRptWaiverExpDate":null}},{"type":"Feature","geometry":{"type":"Point","coordinates":[-122.319149,47.878689]},"properties":{"CWPName":"ALDERWOOD STP","SourceID":"WA0020826","CWPStreet":"6315 PICNIC PT RD","CWPCity":"EDMONDS","CWPState":"WA","RegistryID":"110039931394","CWPNAICSCodes":null,"CWPTotalDesignFlowNmbr":null,"CWPActualAverageFlowNmbr":null,"CWPInspectionCount":1,"CWPSNCStatus":null,"CWPQtrsWithNC":12,"CWPE90Cnt":0,"CWPFormalEaCnt":null,"ElectrRptWaiverExpDate":null}},{"type":"Feature","geometry":{"type":"Point","coordinates":[-77.63761,38.97497]},"properties":{"CWPName":"ALDIE WASTEWATER TREATMENT PLANT","SourceID":"VA0089133","CWPStreet":"39506 JOHN MOSBY HWY","CWPCity":"ALDIE","CWPState":"VA","RegistryID":"110009767350","CWPNAICSCodes":"221320","CWPTotalDesignFlowNmbr":0.015,"CWPActualAverageFlowNmbr":null,"CWPInspectionCount":1,"CWPSNCStatus":null,"CWPQtrsWithNC":0,"CWPE90Cnt":0,"CWPFormalEaCnt":null,"ElectrRptWaiverExpDate":null}},{"type":"Feature","geometry":{"type":"Point","coordinates":[-86.563374,34.586882]},"properties":{"CWPName":"ALDRIDGE CREEK WWTP","SourceID":"AL0056855","CWPStreet":"13331 MEMORIAL PARKWAY S.E.","CWPCity":"HUNTSVILLE","CWPState":"AL","RegistryID":"110014464739","CWPNAICSCodes":"221320","CWPTotalDesignFlowNmbr":8.4,"CWPActualAverageFlowNmbr":4.91,"CWPInspectionCount":7,"CWPSNCStatus":null,"CWPQtrsWithNC":0,"CWPE90Cnt":0,"CWPFormalEaCnt":null,"ElectrRptWaiverExpDate":null}},{"type":"Feature","geometry":{"type":"Point","coordinates":[-80.899519,35.517914]},"properties":{"CWPName":"ALEXANDER ISLAND WWTP","SourceID":"NC0075205","CWPStreet":"NCSR 1102","CWPCity":"SHERRILLS FORD","CWPState":"NC","RegistryID":"110009720187","CWPNAICSCodes":null,"CWPTotalDesignFlowNmbr":0.015,"CWPActualAverageFlowNmbr":null,"CWPInspectionCount":1,"CWPSNCStatus":null,"CWPQtrsWithNC":0,"CWPE90Cnt":0,"CWPFormalEaCnt":null,"ElectrRptWaiverExpDate":null}},{"type":"Feature","geometry":{"type":"Point","coordinates":[-77.0606,38.7989]},"properties":{"CWPName":"ALEXANDRIA RENEW ENTERPRISES WWTP","SourceID":"VAN010059","CWPStreet":"1500 EISENHOWER AVE","CWPCity":"ALEXANDRIA","CWPState":"VA","RegistryID":"110020668981","CWPNAICSCodes":"221320","CWPTotalDesignFlowNmbr":null,"CWPActualAverageFlowNmbr":null,"CWPInspectionCount":1,"CWPSNCStatus":null,"CWPQtrsWithNC":0,"CWPE90Cnt":0,"CWPFormalEaCnt":null,"ElectrRptWaiverExpDate":null}},{"type":"Feature","geometry":{"type":"Point","coordinates":[-77.0606,38.7989]},"properties":{"CWPName":"ALEXANDRIA RENEW ENTERPRISES WWTP","SourceID":"VA0025160","CWPStreet":"1500 EISENHOWER AVE","CWPCity":"ALEXANDRIA","CWPState":"VA","RegistryID":"110020668981","CWPNAICSCodes":"221320","CWPTotalDesignFlowNmbr":54,"CWPActualAverageFlowNmbr":null,"CWPInspectionCount":3,"CWPSNCStatus":null,"CWPQtrsWithNC":1,"CWPE90Cnt":0,"CWPFormalEaCnt":1,"ElectrRptWaiverExpDate":null}},{"type":"Feature","geometry":{"type":"Point","coordinates":[-92.41716,31.2784]},"properties":{"CWPName":"ALEXANDRIA, CITY OF - WWTP","SourceID":"LA0041009","CWPStreet":"1212 HUDSON BLVD.","CWPCity":"ALEXANDRIA","CWPState":"LA","RegistryID":"110000577448","CWPNAICSCodes":null,"CWPTotalDesignFlowNmbr":22,"CWPActualAverageFlowNmbr":null,"CWPInspectionCount":2,"CWPSNCStatus":null,"CWPQtrsWithNC":0,"CWPE90Cnt":0,"CWPFormalEaCnt":null,"ElectrRptWaiverExpDate":null}},{"type":"Feature","geometry":{"type":"Point","coordinates":[-77.778972,42.2645]},"properties":{"CWPName":"ALFRED (V) WWTP","SourceID":"NY0022357","CWPStreet":"198 NORTH MAIN STREET","CWPCity":"ALFRED","CWPState":"NY","RegistryID":"110019780502","CWPNAICSCodes":null,"CWPTotalDesignFlowNmbr":0.98,"CWPActualAverageFlowNmbr":null,"CWPInspectionCount":4,"CWPSNCStatus":null,"CWPQtrsWithNC":11,"CWPE90Cnt":6,"CWPFormalEaCnt":null,"ElectrRptWaiverExpDate":null}},{"type":"Feature","geometry":{"type":"Point","coordinates":[-87.441076,44.611677]},"properties":{"CWPName":"ALGOMA WASTEWATER TREATMENT FA","SourceID":"WI0020745","CWPStreet":"6TH ST","CWPCity":"ALGOMA","CWPState":"WI","RegistryID":"110013325990","CWPNAICSCodes":null,"CWPTotalDesignFlowNmbr":null,"CWPActualAverageFlowNmbr":null,"CWPInspectionCount":2,"CWPSNCStatus":null,"CWPQtrsWithNC":9,"CWPE90Cnt":0,"CWPFormalEaCnt":null,"ElectrRptWaiverExpDate":null}},{"type":"Feature","geometry":{"type":"Point","coordinates":[-79.84755,40.530346]},"properties":{"CWPName":"ALLEGHENY VALLEY JOINT SEWAGE AUTHORITY WASTEWATER TREATMENT PLANT","SourceID":"PAD020037","CWPStreet":"2400 FREEPORT ROAD","CWPCity":"CHESWICK, BOROUGH OF","CWPState":"PA","RegistryID":"110000559529","CWPNAICSCodes":null,"CWPTotalDesignFlowNmbr":null,"CWPActualAverageFlowNmbr":null,"CWPInspectionCount":0,"CWPSNCStatus":null,"CWPQtrsWithNC":5,"CWPE90Cnt":0,"CWPFormalEaCnt":null,"ElectrRptWaiverExpDate":null}},{"type":"Feature","geometry":{"type":"Point","coordinates":[-79.84755,40.530346]},"properties":{"CWPName":"ALLEGHENY VLY JT SEW AUTH STP","SourceID":"PA0026255","CWPStreet":"2400 FREEPORT RD","CWPCity":"PITTSBURGH","CWPState":"PA","RegistryID":"110000559529","CWPNAICSCodes":null,"CWPTotalDesignFlowNmbr":5.5,"CWPActualAverageFlowNmbr":null,"CWPInspectionCount":6,"CWPSNCStatus":null,"CWPQtrsWithNC":2,"CWPE90Cnt":42,"CWPFormalEaCnt":2,"ElectrRptWaiverExpDate":null}},{"type":"Feature","geometry":{"type":"Point","coordinates":[-96.8578,42.4144]},"properties":{"CWPName":"ALLEN WASTEWATER TREATMENT FACILITY","SourceID":"NE0031241","CWPStreet":"1\/8 MILE WEST OF VILLAGE","CWPCity":"ALLEN","CWPState":"NE","RegistryID":"110008930247","CWPNAICSCodes":null,"CWPTotalDesignFlowNmbr":0.036,"CWPActualAverageFlowNmbr":null,"CWPInspectionCount":1,"CWPSNCStatus":null,"CWPQtrsWithNC":0,"CWPE90Cnt":0,"CWPFormalEaCnt":null,"ElectrRptWaiverExpDate":null}},{"type":"Feature","geometry":{"type":"Point","coordinates":[-96.1635,38.6534]},"properties":{"CWPName":"ALLEN, CITY OF (WWTP)","SourceID":"KS0080055","CWPStreet":"UNKNOWN","CWPCity":"ALLEN","CWPState":"KS","RegistryID":"110011224727","CWPNAICSCodes":"221320","CWPTotalDesignFlowNmbr":null,"CWPActualAverageFlowNmbr":null,"CWPInspectionCount":1,"CWPSNCStatus":null,"CWPQtrsWithNC":6,"CWPE90Cnt":7,"CWPFormalEaCnt":null,"ElectrRptWaiverExpDate":null}},{"type":"Feature","geometry":{"type":"Point","coordinates":[-71.45804,43.128668]},"properties":{"CWPName":"ALLENSTOWN W W T F","SourceID":"NH0101390","CWPStreet":"36 CANAL ST","CWPCity":"ALLENSTOWN","CWPState":"NH","RegistryID":"110001103369","CWPNAICSCodes":null,"CWPTotalDesignFlowNmbr":1.5,"CWPActualAverageFlowNmbr":0.62,"CWPInspectionCount":3,"CWPSNCStatus":null,"CWPQtrsWithNC":4,"CWPE90Cnt":10,"CWPFormalEaCnt":null,"ElectrRptWaiverExpDate":null}},{"type":"Feature","geometry":{"type":"Point","coordinates":[-75.453333,40.601667]},"properties":{"CWPName":"ALLENTOWN CITY","SourceID":"PA0063665","CWPStreet":"112 UNION ST","CWPCity":"ALLENTOWN","CWPState":"PA","RegistryID":"110000543617","CWPNAICSCodes":null,"CWPTotalDesignFlowNmbr":0,"CWPActualAverageFlowNmbr":null,"CWPInspectionCount":1,"CWPSNCStatus":null,"CWPQtrsWithNC":0,"CWPE90Cnt":0,"CWPFormalEaCnt":null,"ElectrRptWaiverExpDate":null}},{"type":"Feature","geometry":{"type":"Point","coordinates":[-81.11531,40.948397]},"properties":{"CWPName":"ALLIANCE WWTP","SourceID":"OH0023868","CWPStreet":"12251 ROCKHILL AVE NE","CWPCity":"ALLIANCE","CWPState":"OH","RegistryID":"110000579348","CWPNAICSCodes":null,"CWPTotalDesignFlowNmbr":7.5,"CWPActualAverageFlowNmbr":null,"CWPInspectionCount":2,"CWPSNCStatus":null,"CWPQtrsWithNC":2,"CWPE90Cnt":0,"CWPFormalEaCnt":null,"ElectrRptWaiverExpDate":null}},{"type":"Feature","geometry":{"type":"Point","coordinates":[-97.5678,27.84886]},"properties":{"CWPName":"ALLISON WASTEWATER TREATMENT FACILITIES","SourceID":"TXR05X026","CWPStreet":"ON 4101 ALLISON DR","CWPCity":"CORPUS CHRISTI","CWPState":"TX","RegistryID":"110041834780","CWPNAICSCodes":null,"CWPTotalDesignFlowNmbr":null,"CWPActualAverageFlowNmbr":null,"CWPInspectionCount":1,"CWPSNCStatus":null,"CWPQtrsWithNC":0,"CWPE90Cnt":0,"CWPFormalEaCnt":null,"ElectrRptWaiverExpDate":null}},{"type":"Feature","geometry":{"type":"Point","coordinates":[-90.91279,44.43922]},"properties":{"CWPName":"ALMA CENTER WASTEWATER TREATMENT FACILITY","SourceID":"WI0021385","CWPStreet":"407 NORTH CHURCH ST","CWPCity":"ALMA CENTER, VILLAGE OF","CWPState":"WI","RegistryID":"110016875041","CWPNAICSCodes":null,"CWPTotalDesignFlowNmbr":null,"CWPActualAverageFlowNmbr":0.074,"CWPInspectionCount":1,"CWPSNCStatus":null,"CWPQtrsWithNC":0,"CWPE90Cnt":0,"CWPFormalEaCnt":null,"ElectrRptWaiverExpDate":null}},{"type":"Feature","geometry":{"type":"Point","coordinates":[-94.1856,35.4606]},"properties":{"CWPName":"ALMA WASTEWATER PLANT","SourceID":"ARR000321","CWPStreet":"2500 ORRICK ROAD","CWPCity":"ALMA","CWPState":"AR","RegistryID":"110025058773","CWPNAICSCodes":"221320","CWPTotalDesignFlowNmbr":null,"CWPActualAverageFlowNmbr":null,"CWPInspectionCount":2,"CWPSNCStatus":null,"CWPQtrsWithNC":0,"CWPE90Cnt":0,"CWPFormalEaCnt":null,"ElectrRptWaiverExpDate":null}},{"type":"Feature","geometry":{"type":"Point","coordinates":[-91.90971,44.31255]},"properties":{"CWPName":"ALMA WASTEWATER TREATMENT FACILITY","SourceID":"WI0022101","CWPStreet":"300 E LAUE ST, ALMA, WI","CWPCity":"ALMA","CWPState":"WI","RegistryID":"110010889137","CWPNAICSCodes":null,"CWPTotalDesignFlowNmbr":0.123,"CWPActualAverageFlowNmbr":0.097,"CWPInspectionCount":0,"CWPSNCStatus":null,"CWPQtrsWithNC":11,"CWPE90Cnt":11,"CWPFormalEaCnt":null,"ElectrRptWaiverExpDate":null}},{"type":"Feature","geometry":{"type":"Point","coordinates":[-84.648587,43.387199]},"properties":{"CWPName":"ALMA WWTP","SourceID":"MI0020265","CWPStreet":"1000 WASHINGTON AVE","CWPCity":"ALMA","CWPState":"MI","RegistryID":"110009909750","CWPNAICSCodes":"221320","CWPTotalDesignFlowNmbr":null,"CWPActualAverageFlowNmbr":null,"CWPInspectionCount":4,"CWPSNCStatus":null,"CWPQtrsWithNC":4,"CWPE90Cnt":1,"CWPFormalEaCnt":null,"ElectrRptWaiverExpDate":null}},{"type":"Feature","geometry":{"type":"Point","coordinates":[-94.1856,35.4606]},"properties":{"CWPName":"ALMA, CITY OF","SourceID":"AR0021466","CWPStreet":"2500 ORRICK RD","CWPCity":"ALMA","CWPState":"AR","RegistryID":"110025058773","CWPNAICSCodes":"221320","CWPTotalDesignFlowNmbr":1.75,"CWPActualAverageFlowNmbr":1.407,"CWPInspectionCount":3,"CWPSNCStatus":null,"CWPQtrsWithNC":0,"CWPE90Cnt":0,"CWPFormalEaCnt":1,"ElectrRptWaiverExpDate":null}},{"type":"Feature","geometry":{"type":"Point","coordinates":[-96.289526,39.013135]},"properties":{"CWPName":"ALMA, CITY OF (WWTP)","SourceID":"KS0046345","CWPStreet":"28565 K-99 HWY","CWPCity":"ALMA","CWPState":"KS","RegistryID":"110011225325","CWPNAICSCodes":"221320","CWPTotalDesignFlowNmbr":null,"CWPActualAverageFlowNmbr":null,"CWPInspectionCount":1,"CWPSNCStatus":null,"CWPQtrsWithNC":1,"CWPE90Cnt":2,"CWPFormalEaCnt":null,"ElectrRptWaiverExpDate":null}},{"type":"Feature","geometry":{"type":"Point","coordinates":[-95.409126,29.629134]},"properties":{"CWPName":"ALMEDA SIMS WWTP","SourceID":"TX0034924","CWPStreet":"12319 1\/2 ALMEDA RD","CWPCity":"HOUSTON","CWPState":"TX","RegistryID":"110015742838","CWPNAICSCodes":null,"CWPTotalDesignFlowNmbr":28,"CWPActualAverageFlowNmbr":20,"CWPInspectionCount":3,"CWPSNCStatus":null,"CWPQtrsWithNC":1,"CWPE90Cnt":20,"CWPFormalEaCnt":2,"ElectrRptWaiverExpDate":null}},{"type":"Feature","geometry":{"type":"Point","coordinates":[-95.405621,29.629586]},"properties":{"CWPName":"ALMEDA-SIMS WASTEWATER TREATMENT FACILITY","SourceID":"TXR05K230","CWPStreet":"12319 1\/2 ALMEDA RD","CWPCity":"HOUSTON","CWPState":"TX","RegistryID":"110070370371","CWPNAICSCodes":null,"CWPTotalDesignFlowNmbr":null,"CWPActualAverageFlowNmbr":null,"CWPInspectionCount":0,"CWPSNCStatus":null,"CWPQtrsWithNC":0,"CWPE90Cnt":0,"CWPFormalEaCnt":null,"ElectrRptWaiverExpDate":null}},{"type":"Feature","geometry":{"type":"Point","coordinates":[-99.706777,39.893829]},"properties":{"CWPName":"ALMENA , CITY OF","SourceID":"KS0096768","CWPStreet":"UNKNOWN","CWPCity":"ALMENA","CWPState":"KS","RegistryID":"110022847776","CWPNAICSCodes":"221320","CWPTotalDesignFlowNmbr":null,"CWPActualAverageFlowNmbr":null,"CWPInspectionCount":0,"CWPSNCStatus":null,"CWPQtrsWithNC":0,"CWPE90Cnt":0,"CWPFormalEaCnt":null,"ElectrRptWaiverExpDate":null}},{"type":"Feature","geometry":{"type":"Point","coordinates":[-89.416667,44.266667]},"properties":{"CWPName":"ALMOND WASTEWATER TREATMENT FACILITY","SourceID":"WI0060780","CWPStreet":"SW 1\/4 OF THE NW 1\/4, SECTION 28, T21N, R9E, TOWN","CWPCity":"ALMOND","CWPState":"WI","RegistryID":"110070012680","CWPNAICSCodes":null,"CWPTotalDesignFlowNmbr":null,"CWPActualAverageFlowNmbr":0.04,"CWPInspectionCount":2,"CWPSNCStatus":null,"CWPQtrsWithNC":0,"CWPE90Cnt":0,"CWPFormalEaCnt":null,"ElectrRptWaiverExpDate":null}},{"type":"Feature","geometry":{"type":"Point","coordinates":[-88.115744,30.264621]},"properties":{"CWPName":"ALOE BAY WATER QUALITY ENHANCEMENT WASTEWATER TREATMENT FACILITY","SourceID":"ALR10C6QK","CWPStreet":"701 LEMOYNE DR","CWPCity":"DAUPHIN ISLAND","CWPState":"AL","RegistryID":"ALR10C6QK","CWPNAICSCodes":"237110","CWPTotalDesignFlowNmbr":null,"CWPActualAverageFlowNmbr":null,"CWPInspectionCount":0,"CWPSNCStatus":null,"CWPQtrsWithNC":0,"CWPE90Cnt":0,"CWPFormalEaCnt":null,"ElectrRptWaiverExpDate":null}},{"type":"Feature","geometry":{"type":"Point","coordinates":[-93.302306,36.284806]},"properties":{"CWPName":"ALPENA WASTEWATER TREATMENT FACILITY","SourceID":"AR0053155","CWPStreet":"CR 813","CWPCity":"ALPENA","CWPState":"AR","RegistryID":"110070815257","CWPNAICSCodes":"221320","CWPTotalDesignFlowNmbr":0.06,"CWPActualAverageFlowNmbr":0,"CWPInspectionCount":1,"CWPSNCStatus":"Effluent - Monthly Average Limit","CWPQtrsWithNC":6,"CWPE90Cnt":9,"CWPFormalEaCnt":null,"ElectrRptWaiverExpDate":null}},{"type":"Feature","geometry":{"type":"Point","coordinates":[-86.289389,33.445667]},"properties":{"CWPName":"ALPINE BAY WWTP","SourceID":"AL0051268","CWPStreet":"2 AQUARIUS DRIVE","CWPCity":"ALPINE","CWPState":"AL","RegistryID":"110009122369","CWPNAICSCodes":"221320","CWPTotalDesignFlowNmbr":0.1,"CWPActualAverageFlowNmbr":0.002,"CWPInspectionCount":1,"CWPSNCStatus":null,"CWPQtrsWithNC":0,"CWPE90Cnt":0,"CWPFormalEaCnt":null,"ElectrRptWaiverExpDate":null}},{"type":"Feature","geometry":{"type":"Point","coordinates":[-103.644121,30.398608]},"properties":{"CWPName":"ALPINE WASTEWATER TREATMENT PLANT","SourceID":"TXR05FE68","CWPStreet":"2418 N STATE HIGHWAY 118","CWPCity":"ALPINE","CWPState":"TX","RegistryID":"110071155922","CWPNAICSCodes":null,"CWPTotalDesignFlowNmbr":null,"CWPActualAverageFlowNmbr":null,"CWPInspectionCount":0,"CWPSNCStatus":null,"CWPQtrsWithNC":0,"CWPE90Cnt":0,"CWPFormalEaCnt":null,"ElectrRptWaiverExpDate":null}},{"type":"Feature","geometry":{"type":"Point","coordinates":[-79.285,37.10922]},"properties":{"CWPName":"ALTAVISTA TOWN - WASTEWATER TREATMENT PLANT","SourceID":"VA0020451","CWPStreet":"1200 LANE ACCESS RD","CWPCity":"ALTAVISTA","CWPState":"VA","RegistryID":"110039928503","CWPNAICSCodes":"221320","CWPTotalDesignFlowNmbr":3.6,"CWPActualAverageFlowNmbr":null,"CWPInspectionCount":2,"CWPSNCStatus":null,"CWPQtrsWithNC":2,"CWPE90Cnt":0,"CWPFormalEaCnt":null,"ElectrRptWaiverExpDate":null}},{"type":"Feature","geometry":{"type":"Point","coordinates":[-120.558028,41.473306]},"properties":{"CWPName":"ALTURAS WWTP","SourceID":"CA0078921","CWPStreet":"20099 COUNTY ROAD 54","CWPCity":"ALTURAS","CWPState":"CA","RegistryID":"110000723290","CWPNAICSCodes":null,"CWPTotalDesignFlowNmbr":0.5,"CWPActualAverageFlowNmbr":null,"CWPInspectionCount":1,"CWPSNCStatus":"Effluent - Monthly Average Limit","CWPQtrsWithNC":7,"CWPE90Cnt":42,"CWPFormalEaCnt":3,"ElectrRptWaiverExpDate":null}},{"type":"Feature","geometry":{"type":"Point","coordinates":[-99.271694,34.628639]},"properties":{"CWPName":"ALTUS MS4","SourceID":"OKR040043","CWPStreet":"220 EAST COMMERCE","CWPCity":"ALTUS","CWPState":"OK","RegistryID":"110000753471","CWPNAICSCodes":"921110","CWPTotalDesignFlowNmbr":null,"CWPActualAverageFlowNmbr":null,"CWPInspectionCount":1,"CWPSNCStatus":null,"CWPQtrsWithNC":0,"CWPE90Cnt":0,"CWPFormalEaCnt":null,"ElectrRptWaiverExpDate":null}},{"type":"Feature","geometry":{"type":"Point","coordinates":[-99.271694,34.628639]},"properties":{"CWPName":"ALTUS SE WWTP","SourceID":"OK0028037","CWPStreet":"20240 E CR 195","CWPCity":"ALTUS","CWPState":"OK","RegistryID":"110000753471","CWPNAICSCodes":"221320","CWPTotalDesignFlowNmbr":3.5,"CWPActualAverageFlowNmbr":1.69,"CWPInspectionCount":12,"CWPSNCStatus":"Compliance\/Permit Schedule - Violations","CWPQtrsWithNC":12,"CWPE90Cnt":77,"CWPFormalEaCnt":6,"ElectrRptWaiverExpDate":null}},{"type":"Feature","geometry":{"type":"Point","coordinates":[-123.075278,44.643333]},"properties":{"CWPName":"AM WRF","SourceID":"OR0028801","CWPStreet":"408 WAVERLY DR NE","CWPCity":"ALBANY","CWPState":"OR","RegistryID":"110000916796","CWPNAICSCodes":null,"CWPTotalDesignFlowNmbr":8.7,"CWPActualAverageFlowNmbr":null,"CWPInspectionCount":1,"CWPSNCStatus":null,"CWPQtrsWithNC":12,"CWPE90Cnt":7,"CWPFormalEaCnt":1,"ElectrRptWaiverExpDate":null}},{"type":"Feature","geometry":{"type":"Point","coordinates":[-76.775373,39.091182]},"properties":{"CWPName":"AMERICAN WATER OPERATIONS AND MAINTENANCE, LLC WASTEWATER TREATMENT PLANT","SourceID":"MDR002494","CWPStreet":"3220 LAUREL FORT MEADE ROAD","CWPCity":"LAUREL","CWPState":"MD","RegistryID":"110063017426","CWPNAICSCodes":null,"CWPTotalDesignFlowNmbr":null,"CWPActualAverageFlowNmbr":null,"CWPInspectionCount":1,"CWPSNCStatus":null,"CWPQtrsWithNC":0,"CWPE90Cnt":0,"CWPFormalEaCnt":null,"ElectrRptWaiverExpDate":null}},{"type":"Feature","geometry":{"type":"Point","coordinates":[-78.8136,43.05021]},"properties":{"CWPName":"AMHERST (T) WWTF #16","SourceID":"NY0025950","CWPStreet":"455 TONAWANDA CREEK ROAD","CWPCity":"AMHERST","CWPState":"NY","RegistryID":"110041201810","CWPNAICSCodes":null,"CWPTotalDesignFlowNmbr":36,"CWPActualAverageFlowNmbr":null,"CWPInspectionCount":3,"CWPSNCStatus":null,"CWPQtrsWithNC":12,"CWPE90Cnt":14,"CWPFormalEaCnt":null,"ElectrRptWaiverExpDate":null}},{"type":"Feature","geometry":{"type":"Point","coordinates":[-72.537382,42.387696]},"properties":{"CWPName":"AMHERST W W T P","SourceID":"MA0100218","CWPStreet":"1 MULLINS WAY","CWPCity":"HADLEY","CWPState":"MA","RegistryID":"110009917661","CWPNAICSCodes":null,"CWPTotalDesignFlowNmbr":7.1,"CWPActualAverageFlowNmbr":null,"CWPInspectionCount":1,"CWPSNCStatus":null,"CWPQtrsWithNC":6,"CWPE90Cnt":15,"CWPFormalEaCnt":null,"ElectrRptWaiverExpDate":null}},{"type":"Feature","geometry":{"type":"Point","coordinates":[-89.285056,44.446444]},"properties":{"CWPName":"AMHERST WASTEWATER TREATMENT FACILITY","SourceID":"WI0023213","CWPStreet":"262 PRAIRIEVIEW ST., AMHERST, WI","CWPCity":"AMHERST","CWPState":"WI","RegistryID":"110010888334","CWPNAICSCodes":null,"CWPTotalDesignFlowNmbr":0.14,"CWPActualAverageFlowNmbr":null,"CWPInspectionCount":1,"CWPSNCStatus":null,"CWPQtrsWithNC":12,"CWPE90Cnt":0,"CWPFormalEaCnt":null,"ElectrRptWaiverExpDate":null}},{"type":"Feature","geometry":{"type":"Point","coordinates":[-99.2702,40.8383]},"properties":{"CWPName":"AMHERST WASTEWATER TREATMENT FACILITY","SourceID":"NE0112992","CWPStreet":"PO BOX 97","CWPCity":"AMHERST","CWPState":"NE","RegistryID":"110009840814","CWPNAICSCodes":null,"CWPTotalDesignFlowNmbr":0.0231,"CWPActualAverageFlowNmbr":0.0235,"CWPInspectionCount":1,"CWPSNCStatus":null,"CWPQtrsWithNC":0,"CWPE90Cnt":0,"CWPFormalEaCnt":null,"ElectrRptWaiverExpDate":null}},{"type":"Feature","geometry":{"type":"Point","coordinates":[-72.537382,42.387696]},"properties":{"CWPName":"AMHERST WASTEWATER TREATMENT PLANT","SourceID":"MAR054048","CWPStreet":"1 MULLINS WAY","CWPCity":"HADLEY","CWPState":"MA","RegistryID":"110009917661","CWPNAICSCodes":null,"CWPTotalDesignFlowNmbr":null,"CWPActualAverageFlowNmbr":null,"CWPInspectionCount":0,"CWPSNCStatus":null,"CWPQtrsWithNC":1,"CWPE90Cnt":0,"CWPFormalEaCnt":null,"ElectrRptWaiverExpDate":null}},{"type":"Feature","geometry":{"type":"Point","coordinates":[-155.944841,19.567027]},"properties":{"CWPName":"AMR1 SEWER PUMP STATION, FORCE MAIN B","SourceID":"HIF013882","CWPStreet":"UNKNOWN","CWPCity":"UNKNOWN","CWPState":"HI","RegistryID":"110039177459","CWPNAICSCodes":null,"CWPTotalDesignFlowNmbr":null,"CWPActualAverageFlowNmbr":null,"CWPInspectionCount":0,"CWPSNCStatus":null,"CWPQtrsWithNC":0,"CWPE90Cnt":0,"CWPFormalEaCnt":null,"ElectrRptWaiverExpDate":null}},{"type":"Feature","geometry":{"type":"Point","coordinates":[-80.922858,40.473739]},"properties":{"CWPName":"AMSTERDAM AREA WASTEWATER TREATMENT PLANT","SourceID":"OH0145157","CWPStreet":"NORTH OF LIBERTY ST","CWPCity":"AMSTERDAM","CWPState":"OH","RegistryID":"110070505519","CWPNAICSCodes":null,"CWPTotalDesignFlowNmbr":0.05,"CWPActualAverageFlowNmbr":null,"CWPInspectionCount":1,"CWPSNCStatus":null,"CWPQtrsWithNC":9,"CWPE90Cnt":29,"CWPFormalEaCnt":null,"ElectrRptWaiverExpDate":null}},{"type":"Feature","geometry":{"type":"Point","coordinates":[-155.944841,19.567027]},"properties":{"CWPName":"ANAHOLA FARM LOTS SUBDIVISION WATER SYSTEM IMPROVEMENTS PHASE II (2)","SourceID":"HIF013119","CWPStreet":"UNKNOWN","CWPCity":"UNKNOWN","CWPState":"HI","RegistryID":"110039177459","CWPNAICSCodes":null,"CWPTotalDesignFlowNmbr":null,"CWPActualAverageFlowNmbr":null,"CWPInspectionCount":0,"CWPSNCStatus":null,"CWPQtrsWithNC":0,"CWPE90Cnt":0,"CWPFormalEaCnt":null,"ElectrRptWaiverExpDate":null}},{"type":"Feature","geometry":{"type":"Point","coordinates":[-155.944841,19.567027]},"properties":{"CWPName":"ANAHOLA FARM LOTS WATER PROJECT PHASE II - WATER TANK REPLACEMENT & FACILITY IMP","SourceID":"HIF013120","CWPStreet":"UNKNOWN","CWPCity":"UNKNOWN","CWPState":"HI","RegistryID":"110039177459","CWPNAICSCodes":null,"CWPTotalDesignFlowNmbr":null,"CWPActualAverageFlowNmbr":null,"CWPInspectionCount":0,"CWPSNCStatus":null,"CWPQtrsWithNC":0,"CWPE90Cnt":0,"CWPFormalEaCnt":null,"ElectrRptWaiverExpDate":null}},{"type":"Feature","geometry":{"type":"Point","coordinates":[-81.291775,29.856211]},"properties":{"CWPName":"ANASTASIA ISLAND WASTEWATER TREATMENT FACILITY","SourceID":"FLR20AL69","CWPStreet":"860 W 16TH ST","CWPCity":"ST AUGUSTINE","CWPState":"FL","RegistryID":"110067189900","CWPNAICSCodes":"221320","CWPTotalDesignFlowNmbr":null,"CWPActualAverageFlowNmbr":null,"CWPInspectionCount":0,"CWPSNCStatus":null,"CWPQtrsWithNC":0,"CWPE90Cnt":0,"CWPFormalEaCnt":null,"ElectrRptWaiverExpDate":null}},{"type":"Feature","geometry":{"type":"Point","coordinates":[-81.291775,29.856211]},"properties":{"CWPName":"ANASTASIA ISLAND WASTEWATER TREATMENT PLANT","SourceID":"FLR05F524","CWPStreet":"860 W 16TH ST","CWPCity":"ST AUGUSTINE","CWPState":"FL","RegistryID":"110067189900","CWPNAICSCodes":"221320","CWPTotalDesignFlowNmbr":null,"CWPActualAverageFlowNmbr":null,"CWPInspectionCount":1,"CWPSNCStatus":null,"CWPQtrsWithNC":0,"CWPE90Cnt":0,"CWPFormalEaCnt":null,"ElectrRptWaiverExpDate":null}},{"type":"Feature","geometry":{"type":"Point","coordinates":[-81.291775,29.856211]},"properties":{"CWPName":"ANASTASIA ISLAND WWTF","SourceID":"FL0038831","CWPStreet":"860 W 16TH ST","CWPCity":"ST AUGUSTINE","CWPState":"FL","RegistryID":"110067189900","CWPNAICSCodes":"221320","CWPTotalDesignFlowNmbr":4.95,"CWPActualAverageFlowNmbr":2.75,"CWPInspectionCount":7,"CWPSNCStatus":null,"CWPQtrsWithNC":10,"CWPE90Cnt":5,"CWPFormalEaCnt":1,"ElectrRptWaiverExpDate":null}},{"type":"Feature","geometry":{"type":"Point","coordinates":[-81.291775,29.856211]},"properties":{"CWPName":"ANASTASIA ISLAND WWTP","SourceID":"FLR20FI32","CWPStreet":"860 W 16TH ST","CWPCity":"ST AUGUSTINE","CWPState":"FL","RegistryID":"110067189900","CWPNAICSCodes":"221320","CWPTotalDesignFlowNmbr":null,"CWPActualAverageFlowNmbr":null,"CWPInspectionCount":0,"CWPSNCStatus":null,"CWPQtrsWithNC":0,"CWPE90Cnt":0,"CWPFormalEaCnt":null,"ElectrRptWaiverExpDate":null}},{"type":"Feature","geometry":{"type":"Point","coordinates":[-150.023509,61.196425]},"properties":{"CWPName":"ANCHORAGE, MUNICIPALITY OF - JOHN M. ASPLUND WPCF","SourceID":"AK0022551","CWPStreet":"2300 HUTSON DRIVE","CWPCity":"ANCHORAGE","CWPState":"AK","RegistryID":"110000523595","CWPNAICSCodes":"221320","CWPTotalDesignFlowNmbr":58,"CWPActualAverageFlowNmbr":null,"CWPInspectionCount":3,"CWPSNCStatus":null,"CWPQtrsWithNC":1,"CWPE90Cnt":0,"CWPFormalEaCnt":null,"ElectrRptWaiverExpDate":null}},{"type":"Feature","geometry":{"type":"Point","coordinates":[-86.522278,31.305806]},"properties":{"CWPName":"ANDALUSIA RIVERSIDE WWTP","SourceID":"AL0055417","CWPStreet":"21938 RABREN ROAD","CWPCity":"ANDALUSIA","CWPState":"AL","RegistryID":"110000713069","CWPNAICSCodes":null,"CWPTotalDesignFlowNmbr":2.84,"CWPActualAverageFlowNmbr":1.65,"CWPInspectionCount":6,"CWPSNCStatus":null,"CWPQtrsWithNC":0,"CWPE90Cnt":0,"CWPFormalEaCnt":null,"ElectrRptWaiverExpDate":null}},{"type":"Feature","geometry":{"type":"Point","coordinates":[-82.625278,34.491944]},"properties":{"CWPName":"ANDERSON ROCKY RIVER","SourceID":"SC0023744","CWPStreet":"309 KIRKWOOD DRIVE","CWPCity":"ANDERSON","CWPState":"SC","RegistryID":"110000562043","CWPNAICSCodes":"221320","CWPTotalDesignFlowNmbr":null,"CWPActualAverageFlowNmbr":null,"CWPInspectionCount":5,"CWPSNCStatus":null,"CWPQtrsWithNC":12,"CWPE90Cnt":8,"CWPFormalEaCnt":null,"ElectrRptWaiverExpDate":null}},{"type":"Feature","geometry":{"type":"Point","coordinates":[-122.275,40.466389]},"properties":{"CWPName":"ANDERSON WPCP","SourceID":"CA0077704","CWPStreet":"3701 RUPERT RD","CWPCity":"ANDERSON","CWPState":"CA","RegistryID":"110000753346","CWPNAICSCodes":null,"CWPTotalDesignFlowNmbr":2,"CWPActualAverageFlowNmbr":null,"CWPInspectionCount":2,"CWPSNCStatus":null,"CWPQtrsWithNC":5,"CWPE90Cnt":12,"CWPFormalEaCnt":null,"ElectrRptWaiverExpDate":null}},{"type":"Feature","geometry":{"type":"Point","coordinates":[-82.655,34.51]},"properties":{"CWPName":"ANITA INC BUDGET INN","SourceID":"SC0023311","CWPStreet":"I-85 & SC 187","CWPCity":"ANDERSON","CWPState":"SC","RegistryID":"110002329980","CWPNAICSCodes":null,"CWPTotalDesignFlowNmbr":null,"CWPActualAverageFlowNmbr":null,"CWPInspectionCount":3,"CWPSNCStatus":null,"CWPQtrsWithNC":5,"CWPE90Cnt":11,"CWPFormalEaCnt":1,"ElectrRptWaiverExpDate":null}},{"type":"Feature","geometry":{"type":"Point","coordinates":[-83.66993,42.26937]},"properties":{"CWPName":"ANN ARBOR WWTP","SourceID":"MI0022217","CWPStreet":"49 S. DIXBORO ROAD","CWPCity":"ANN ARBOR","CWPState":"MI","RegistryID":"110009909313","CWPNAICSCodes":"221320","CWPTotalDesignFlowNmbr":null,"CWPActualAverageFlowNmbr":null,"CWPInspectionCount":5,"CWPSNCStatus":null,"CWPQtrsWithNC":9,"CWPE90Cnt":12,"CWPFormalEaCnt":null,"ElectrRptWaiverExpDate":null}},{"type":"Feature","geometry":{"type":"Point","coordinates":[-69.883282,44.795381]},"properties":{"CWPName":"ANSON-MADISON WWTF","SourceID":"ME0101389","CWPStreet":"49 PINE ST","CWPCity":"MADISON","CWPState":"ME","RegistryID":"110006618320","CWPNAICSCodes":null,"CWPTotalDesignFlowNmbr":7.84,"CWPActualAverageFlowNmbr":null,"CWPInspectionCount":2,"CWPSNCStatus":null,"CWPQtrsWithNC":4,"CWPE90Cnt":7,"CWPFormalEaCnt":null,"ElectrRptWaiverExpDate":null}},{"type":"Feature","geometry":{"type":"Point","coordinates":[-71.93346,43.0253]},"properties":{"CWPName":"ANTRIM WATER & SEWER DEPT","SourceID":"NHG580561","CWPStreet":"DEPOT STREET","CWPCity":"ANTRIM","CWPState":"NH","RegistryID":"110044787120","CWPNAICSCodes":null,"CWPTotalDesignFlowNmbr":null,"CWPActualAverageFlowNmbr":0.21,"CWPInspectionCount":3,"CWPSNCStatus":null,"CWPQtrsWithNC":2,"CWPE90Cnt":2,"CWPFormalEaCnt":null,"ElectrRptWaiverExpDate":null}},{"type":"Feature","geometry":{"type":"Point","coordinates":[-82.169541,38.640047]},"properties":{"CWPName":"APPLE GROVE WASTEWATER TREATMENT PLANT","SourceID":"WVR112283","CWPStreet":"CO RT 2\/26","CWPCity":"APPLE GROVE","CWPState":"WV","RegistryID":"110071509578","CWPNAICSCodes":null,"CWPTotalDesignFlowNmbr":null,"CWPActualAverageFlowNmbr":null,"CWPInspectionCount":0,"CWPSNCStatus":null,"CWPQtrsWithNC":0,"CWPE90Cnt":0,"CWPFormalEaCnt":null,"ElectrRptWaiverExpDate":null}},{"type":"Feature","geometry":{"type":"Point","coordinates":[-89.1368,41.91949]},"properties":{"CWPName":"AQUA ILLINOIS - WOODLAWN WASTEWATER","SourceID":"ILG551067","CWPStreet":"JAMES DRIVE","CWPCity":"CITY OF ROCHELLE","CWPState":"IL","RegistryID":"110010025882","CWPNAICSCodes":null,"CWPTotalDesignFlowNmbr":0.14,"CWPActualAverageFlowNmbr":0.056,"CWPInspectionCount":1,"CWPSNCStatus":null,"CWPQtrsWithNC":1,"CWPE90Cnt":2,"CWPFormalEaCnt":null,"ElectrRptWaiverExpDate":null}},{"type":"Feature","geometry":{"type":"Point","coordinates":[-75.003764,41.507496]},"properties":{"CWPName":"AQUA PA WASTEWATER INC MAST HOPE WWTF","SourceID":"PA0060496","CWPStreet":"MASTHOPE PLANK ROAD","CWPCity":"LACKAWAXEN","CWPState":"PA","RegistryID":"110010189786","CWPNAICSCodes":null,"CWPTotalDesignFlowNmbr":0.1,"CWPActualAverageFlowNmbr":null,"CWPInspectionCount":11,"CWPSNCStatus":null,"CWPQtrsWithNC":0,"CWPE90Cnt":2,"CWPFormalEaCnt":null,"ElectrRptWaiverExpDate":null}},{"type":"Feature","geometry":{"type":"Point","coordinates":[-75.881111,39.797639]},"properties":{"CWPName":"AQUA PENNSYLVANIA WASTEWATER INC","SourceID":"PA0053783","CWPStreet":"PENN LONDON ELEMENTARY SCHOOL","CWPCity":"WEST GROVE","CWPState":"PA","RegistryID":"110010972616","CWPNAICSCodes":null,"CWPTotalDesignFlowNmbr":0.029,"CWPActualAverageFlowNmbr":null,"CWPInspectionCount":3,"CWPSNCStatus":null,"CWPQtrsWithNC":8,"CWPE90Cnt":5,"CWPFormalEaCnt":null,"ElectrRptWaiverExpDate":null}},{"type":"Feature","geometry":{"type":"Point","coordinates":[-76.1026,40.92181]},"properties":{"CWPName":"AQUA\/ EAGLE ROCK (LITTLE WASHINGTON WASTEWATER CO)","SourceID":"PA0061590","CWPStreet":"551 MOUNTAIN ROAD","CWPCity":"ZION GROVE","CWPState":"PA","RegistryID":"110010970324","CWPNAICSCodes":null,"CWPTotalDesignFlowNmbr":1.318,"CWPActualAverageFlowNmbr":null,"CWPInspectionCount":10,"CWPSNCStatus":null,"CWPQtrsWithNC":11,"CWPE90Cnt":0,"CWPFormalEaCnt":null,"ElectrRptWaiverExpDate":null}},{"type":"Feature","geometry":{"type":"Point","coordinates":[-77.39547,38.44636]},"properties":{"CWPName":"AQUIA WASTEWATER TREATMENT PLANT","SourceID":"VAN010023","CWPStreet":"75 COAL LANDING RD","CWPCity":"STAFFORD","CWPState":"VA","RegistryID":"110008180244","CWPNAICSCodes":"221320","CWPTotalDesignFlowNmbr":null,"CWPActualAverageFlowNmbr":null,"CWPInspectionCount":1,"CWPSNCStatus":null,"CWPQtrsWithNC":0,"CWPE90Cnt":0,"CWPFormalEaCnt":null,"ElectrRptWaiverExpDate":null}},{"type":"Feature","geometry":{"type":"Point","coordinates":[-77.39547,38.44636]},"properties":{"CWPName":"AQUIA WASTEWATER TREATMENT PLANT","SourceID":"VA0060968","CWPStreet":"75 COAL LANDING RD","CWPCity":"STAFFORD","CWPState":"VA","RegistryID":"110008180244","CWPNAICSCodes":"221320","CWPTotalDesignFlowNmbr":10,"CWPActualAverageFlowNmbr":null,"CWPInspectionCount":1,"CWPSNCStatus":null,"CWPQtrsWithNC":2,"CWPE90Cnt":0,"CWPFormalEaCnt":null,"ElectrRptWaiverExpDate":null}},{"type":"Feature","geometry":{"type":"Point","coordinates":[-99.89624,40.303392]},"properties":{"CWPName":"ARAPAHOE WASTEWATER TREATMENT FACILITY","SourceID":"NE0021521","CWPStreet":"503 6TH STREET","CWPCity":"ARAPAHOE","CWPState":"NE","RegistryID":"110011036182","CWPNAICSCodes":null,"CWPTotalDesignFlowNmbr":0.2,"CWPActualAverageFlowNmbr":0.121,"CWPInspectionCount":2,"CWPSNCStatus":null,"CWPQtrsWithNC":1,"CWPE90Cnt":0,"CWPFormalEaCnt":null,"ElectrRptWaiverExpDate":null}},{"type":"Feature","geometry":{"type":"Point","coordinates":[-91.51195,44.23727]},"properties":{"CWPName":"ARCADIA WASTEWATER TREATMENT FACILITY","SourceID":"WI0023230","CWPStreet":"1070 MIDDLE ROAD, ARCADIA, WI","CWPCity":"ARCADIA","CWPState":"WI","RegistryID":"110002050226","CWPNAICSCodes":null,"CWPTotalDesignFlowNmbr":0.7,"CWPActualAverageFlowNmbr":2.117,"CWPInspectionCount":1,"CWPSNCStatus":null,"CWPQtrsWithNC":4,"CWPE90Cnt":2,"CWPFormalEaCnt":null,"ElectrRptWaiverExpDate":null}},{"type":"Feature","geometry":{"type":"Point","coordinates":[-99.125498,41.423309]},"properties":{"CWPName":"ARCADIA WASTEWATER TREATMENT FACILITY","SourceID":"NE0041297","CWPStreet":"110 WEST BRIDGE STREET","CWPCity":"ARCADIA","CWPState":"NE","RegistryID":"110008961686","CWPNAICSCodes":null,"CWPTotalDesignFlowNmbr":0.078,"CWPActualAverageFlowNmbr":0.074,"CWPInspectionCount":1,"CWPSNCStatus":null,"CWPQtrsWithNC":5,"CWPE90Cnt":2,"CWPFormalEaCnt":null,"ElectrRptWaiverExpDate":null}},{"type":"Feature","geometry":{"type":"Point","coordinates":[-124.089753,40.851501]},"properties":{"CWPName":"ARCATA WWTF","SourceID":"CA0022713","CWPStreet":"600 SOUTH G STREET","CWPCity":"ARCATA","CWPState":"CA","RegistryID":"110037254752","CWPNAICSCodes":null,"CWPTotalDesignFlowNmbr":2.3,"CWPActualAverageFlowNmbr":null,"CWPInspectionCount":2,"CWPSNCStatus":"Compliance\/Permit Schedule - Violations","CWPQtrsWithNC":12,"CWPE90Cnt":64,"CWPFormalEaCnt":4,"ElectrRptWaiverExpDate":null}},{"type":"Feature","geometry":{"type":"Point","coordinates":[-97.151917,34.227722]},"properties":{"CWPName":"ARDMORE INDUSTRIAL AIR PARK WASTEWATER TREATMENT","SourceID":"OK0030422","CWPStreet":"6 MILES E OF HWY 77 AND HWY 53","CWPCity":"ARDMORE","CWPState":"OK","RegistryID":"110011008417","CWPNAICSCodes":"221320","CWPTotalDesignFlowNmbr":0.203,"CWPActualAverageFlowNmbr":0.2,"CWPInspectionCount":3,"CWPSNCStatus":null,"CWPQtrsWithNC":2,"CWPE90Cnt":0,"CWPFormalEaCnt":2,"ElectrRptWaiverExpDate":null}},{"type":"Feature","geometry":{"type":"Point","coordinates":[-97.151917,34.227722]},"properties":{"CWPName":"ARDMORE PWA","SourceID":"OKG380061","CWPStreet":"4625 ARDMORE LAKE ROAD NW.","CWPCity":"ARDMORE","CWPState":"OK","RegistryID":"110011008417","CWPNAICSCodes":null,"CWPTotalDesignFlowNmbr":0.96,"CWPActualAverageFlowNmbr":0.16,"CWPInspectionCount":0,"CWPSNCStatus":null,"CWPQtrsWithNC":2,"CWPE90Cnt":6,"CWPFormalEaCnt":1,"ElectrRptWaiverExpDate":null}},{"type":"Feature","geometry":{"type":"Point","coordinates":[-97.096,34.211417]},"properties":{"CWPName":"ARDMORE PWA","SourceID":"OK0038440","CWPStreet":"3600 SUTTON RD","CWPCity":"ARDMORE","CWPState":"OK","RegistryID":"110024424602","CWPNAICSCodes":"221320","CWPTotalDesignFlowNmbr":5.9,"CWPActualAverageFlowNmbr":3,"CWPInspectionCount":13,"CWPSNCStatus":null,"CWPQtrsWithNC":2,"CWPE90Cnt":39,"CWPFormalEaCnt":4,"ElectrRptWaiverExpDate":null}},{"type":"Feature","geometry":{"type":"Point","coordinates":[-66.677694,18.480556]},"properties":{"CWPName":"ARECIBO WWTP","SourceID":"PRR053041","CWPStreet":"ROAD # 681, KM 2.0, ISLOTE WARD","CWPCity":"ARECIBO","CWPState":"PR","RegistryID":"110006622592","CWPNAICSCodes":null,"CWPTotalDesignFlowNmbr":null,"CWPActualAverageFlowNmbr":null,"CWPInspectionCount":0,"CWPSNCStatus":null,"CWPQtrsWithNC":0,"CWPE90Cnt":0,"CWPFormalEaCnt":null,"ElectrRptWaiverExpDate":null}},{"type":"Feature","geometry":{"type":"Point","coordinates":[-86.262917,41.234667]},"properties":{"CWPName":"ARGOS WASTEWATER TREATMENT PLANT","SourceID":"IN0022284","CWPStreet":"16720 LINDEN RD","CWPCity":"ARGOS","CWPState":"IN","RegistryID":"110006766650","CWPNAICSCodes":null,"CWPTotalDesignFlowNmbr":0.212,"CWPActualAverageFlowNmbr":0.12,"CWPInspectionCount":4,"CWPSNCStatus":null,"CWPQtrsWithNC":4,"CWPE90Cnt":13,"CWPFormalEaCnt":null,"ElectrRptWaiverExpDate":null}},{"type":"Feature","geometry":{"type":"Point","coordinates":[-89.8695,42.6992]},"properties":{"CWPName":"ARGYLE WASTEWATER TREATMENT FACILITY","SourceID":"WI0022225","CWPStreet":"101 MILL STREET, ARGYLE, WISCONSIN","CWPCity":"ARGYLE","CWPState":"WI","RegistryID":"110010889191","CWPNAICSCodes":null,"CWPTotalDesignFlowNmbr":0.1,"CWPActualAverageFlowNmbr":0.183,"CWPInspectionCount":0,"CWPSNCStatus":null,"CWPQtrsWithNC":9,"CWPE90Cnt":8,"CWPFormalEaCnt":null,"ElectrRptWaiverExpDate":null}},{"type":"Feature","geometry":{"type":"Point","coordinates":[-74.220417,40.609387]},"properties":{"CWPName":"ARIES LINDEN SLUDGE PROCESSING PLANT","SourceID":"NJG303968","CWPStreet":"5005 S WOOD AVE","CWPCity":"LINDEN CITY","CWPState":"NJ","RegistryID":"110000570766","CWPNAICSCodes":null,"CWPTotalDesignFlowNmbr":null,"CWPActualAverageFlowNmbr":null,"CWPInspectionCount":0,"CWPSNCStatus":null,"CWPQtrsWithNC":0,"CWPE90Cnt":0,"CWPFormalEaCnt":null,"ElectrRptWaiverExpDate":null}},{"type":"Feature","geometry":{"type":"Point","coordinates":[-155.944841,19.567027]},"properties":{"CWPName":"ARIZONA HALL PARKING LOT REPAVING (2)","SourceID":"HIF014370","CWPStreet":"UNKNOWN","CWPCity":"UNKNOWN","CWPState":"HI","RegistryID":"110039177459","CWPNAICSCodes":"928110","CWPTotalDesignFlowNmbr":null,"CWPActualAverageFlowNmbr":null,"CWPInspectionCount":0,"CWPSNCStatus":null,"CWPQtrsWithNC":0,"CWPE90Cnt":0,"CWPFormalEaCnt":null,"ElectrRptWaiverExpDate":null}},{"type":"Feature","geometry":{"type":"Point","coordinates":[-93.047222,34.090833]},"properties":{"CWPName":"ARKADELPHIA WASTEWATER PLANT","SourceID":"ARR000190","CWPStreet":"SOUTH 3RD STREET","CWPCity":"ARKADELPHIA","CWPState":"AR","RegistryID":"110025344063","CWPNAICSCodes":"493120 221310","CWPTotalDesignFlowNmbr":0,"CWPActualAverageFlowNmbr":null,"CWPInspectionCount":0,"CWPSNCStatus":null,"CWPQtrsWithNC":0,"CWPE90Cnt":0,"CWPFormalEaCnt":null,"ElectrRptWaiverExpDate":null}},{"type":"Feature","geometry":{"type":"Point","coordinates":[-92.015333,44.630722]},"properties":{"CWPName":"ARKANSAW WASTEWATER TREATMENT FACILITY","SourceID":"WI0060232","CWPStreet":"COUNTY TRUNK HWY O, ARKANSAW, WI","CWPCity":"ARKANSAW","CWPState":"WI","RegistryID":"110010884454","CWPNAICSCodes":null,"CWPTotalDesignFlowNmbr":0.044,"CWPActualAverageFlowNmbr":0.033,"CWPInspectionCount":1,"CWPSNCStatus":null,"CWPQtrsWithNC":8,"CWPE90Cnt":7,"CWPFormalEaCnt":null,"ElectrRptWaiverExpDate":null}},{"type":"Feature","geometry":{"type":"Point","coordinates":[-81.541225,30.345932]},"properties":{"CWPName":"ARLINGTON EAST WATER RECLAMAT","SourceID":"FLR05B505","CWPStreet":"1555 MILLCOE RD","CWPCity":"JACKSONVILLE","CWPState":"FL","RegistryID":"110035603745","CWPNAICSCodes":"221320","CWPTotalDesignFlowNmbr":null,"CWPActualAverageFlowNmbr":null,"CWPInspectionCount":2,"CWPSNCStatus":null,"CWPQtrsWithNC":1,"CWPE90Cnt":0,"CWPFormalEaCnt":null,"ElectrRptWaiverExpDate":null}},{"type":"Feature","geometry":{"type":"Point","coordinates":[-81.541225,30.345932]},"properties":{"CWPName":"ARLINGTON EAST WWTF","SourceID":"FL0026441","CWPStreet":"1555 MILLCOE RD","CWPCity":"JACKSONVILLE","CWPState":"FL","RegistryID":"110035603745","CWPNAICSCodes":"221320","CWPTotalDesignFlowNmbr":25,"CWPActualAverageFlowNmbr":16.2,"CWPInspectionCount":2,"CWPSNCStatus":null,"CWPQtrsWithNC":2,"CWPE90Cnt":2,"CWPFormalEaCnt":null,"ElectrRptWaiverExpDate":null}},{"type":"Feature","geometry":{"type":"Point","coordinates":[-89.379272,43.334855]},"properties":{"CWPName":"ARLINGTON WASTEWATER TREATMENT FACILITY","SourceID":"WI0021512","CWPStreet":"490A CURTIS STREET, ARLINGTON, WISCONSIN","CWPCity":"ARLINGTON","CWPState":"WI","RegistryID":"110010889413","CWPNAICSCodes":null,"CWPTotalDesignFlowNmbr":0.05,"CWPActualAverageFlowNmbr":0.117,"CWPInspectionCount":0,"CWPSNCStatus":null,"CWPQtrsWithNC":5,"CWPE90Cnt":0,"CWPFormalEaCnt":null,"ElectrRptWaiverExpDate":null}},{"type":"Feature","geometry":{"type":"Point","coordinates":[-100.195,41.421814]},"properties":{"CWPName":"ARNOLD WASTEWATER TREATMENT FACILITY","SourceID":"NE0028096","CWPStreet":"209 - W. 1ST STREET,  P.O. BOX  70","CWPCity":"ARNOLD","CWPState":"NE","RegistryID":"110001514488","CWPNAICSCodes":null,"CWPTotalDesignFlowNmbr":0.06,"CWPActualAverageFlowNmbr":0.042,"CWPInspectionCount":2,"CWPSNCStatus":null,"CWPQtrsWithNC":1,"CWPE90Cnt":0,"CWPFormalEaCnt":null,"ElectrRptWaiverExpDate":null}},{"type":"Feature","geometry":{"type":"Point","coordinates":[-90.028889,44.542556]},"properties":{"CWPName":"ARPIN WASTEWATER TREATMENT FACILITY","SourceID":"WI0031267","CWPStreet":"6190 MAIN ST, ARPIN, WI","CWPCity":"WOOD COUNTY","CWPState":"WI","RegistryID":"110010886620","CWPNAICSCodes":null,"CWPTotalDesignFlowNmbr":0.0557,"CWPActualAverageFlowNmbr":0.066,"CWPInspectionCount":0,"CWPSNCStatus":null,"CWPQtrsWithNC":5,"CWPE90Cnt":1,"CWPFormalEaCnt":null,"ElectrRptWaiverExpDate":null}},{"type":"Feature","geometry":{"type":"Point","coordinates":[-97.626603,30.298278]},"properties":{"CWPName":"ASBESTOS CEMENT WATER PIPE AND WASTEWATER LINE REPLACEMENT","SourceID":"TXR1562EK","CWPStreet":"THE ENTIRE ROW ON EAST MEADOW BEND DRIVE.","CWPCity":"AUSTIN","CWPState":"TX","RegistryID":"110070893797","CWPNAICSCodes":null,"CWPTotalDesignFlowNmbr":null,"CWPActualAverageFlowNmbr":null,"CWPInspectionCount":0,"CWPSNCStatus":null,"CWPQtrsWithNC":0,"CWPE90Cnt":0,"CWPFormalEaCnt":null,"ElectrRptWaiverExpDate":null}},{"type":"Feature","geometry":{"type":"Point","coordinates":[-91.59803,36.213929]},"properties":{"CWPName":"ASH FLAT, CITY OF - WASTEWATER TREATMENT FACILITY","SourceID":"AR0041742","CWPStreet":"80 MARTIN STREET","CWPCity":"ASH FLAT","CWPState":"AR","RegistryID":"110055981255","CWPNAICSCodes":"221320","CWPTotalDesignFlowNmbr":0.15,"CWPActualAverageFlowNmbr":0.077,"CWPInspectionCount":1,"CWPSNCStatus":null,"CWPQtrsWithNC":8,"CWPE90Cnt":44,"CWPFormalEaCnt":1,"ElectrRptWaiverExpDate":null}},{"type":"Feature","geometry":{"type":"Point","coordinates":[-79.78735,35.76481]},"properties":{"CWPName":"ASHEBORO WWTP","SourceID":"NC0026123","CWPStreet":"1032 BONKEMEYER DR","CWPCity":"ASHEBORO","CWPState":"NC","RegistryID":"110000570944","CWPNAICSCodes":null,"CWPTotalDesignFlowNmbr":9,"CWPActualAverageFlowNmbr":null,"CWPInspectionCount":6,"CWPSNCStatus":null,"CWPQtrsWithNC":7,"CWPE90Cnt":4,"CWPFormalEaCnt":1,"ElectrRptWaiverExpDate":null}},{"type":"Feature","geometry":{"type":"Point","coordinates":[-79.78735,35.76481]},"properties":{"CWPName":"ASHEBORO WWTP","SourceID":"NCG110141","CWPStreet":"1032 BONKEMEYER DR","CWPCity":"ASHEBORO","CWPState":"NC","RegistryID":"110000570944","CWPNAICSCodes":null,"CWPTotalDesignFlowNmbr":0,"CWPActualAverageFlowNmbr":null,"CWPInspectionCount":1,"CWPSNCStatus":null,"CWPQtrsWithNC":0,"CWPE90Cnt":0,"CWPFormalEaCnt":null,"ElectrRptWaiverExpDate":null}},{"type":"Feature","geometry":{"type":"Point","coordinates":[-87.067,36.27254]},"properties":{"CWPName":"ASHLAND CITY STP","SourceID":"TN0020737","CWPStreet":"199 RHEA STREET","CWPCity":"ASHLAND CITY","CWPState":"TN","RegistryID":"110039907679","CWPNAICSCodes":null,"CWPTotalDesignFlowNmbr":0.8,"CWPActualAverageFlowNmbr":0.83,"CWPInspectionCount":2,"CWPSNCStatus":null,"CWPQtrsWithNC":12,"CWPE90Cnt":25,"CWPFormalEaCnt":null,"ElectrRptWaiverExpDate":null}},{"type":"Feature","geometry":{"type":"Point","coordinates":[-87.067,36.27254]},"properties":{"CWPName":"ASHLAND CITY WASTEWATER TREATMENT FACILITY","SourceID":"TNR246322","CWPStreet":"199 RHEA STREET","CWPCity":"ASHLAND CITY","CWPState":"TN","RegistryID":"110039907679","CWPNAICSCodes":null,"CWPTotalDesignFlowNmbr":null,"CWPActualAverageFlowNmbr":null,"CWPInspectionCount":0,"CWPSNCStatus":null,"CWPQtrsWithNC":0,"CWPE90Cnt":0,"CWPFormalEaCnt":null,"ElectrRptWaiverExpDate":null}},{"type":"Feature","geometry":{"type":"Point","coordinates":[-82.623779,38.474602]},"properties":{"CWPName":"ASHLAND STP","SourceID":"KY0022373","CWPStreet":"2600 RIVERFRONT DR","CWPCity":"ASHLAND","CWPState":"KY","RegistryID":"110000732244","CWPNAICSCodes":"221320","CWPTotalDesignFlowNmbr":11,"CWPActualAverageFlowNmbr":6.33,"CWPInspectionCount":9,"CWPSNCStatus":null,"CWPQtrsWithNC":3,"CWPE90Cnt":3,"CWPFormalEaCnt":null,"ElectrRptWaiverExpDate":null}},{"type":"Feature","geometry":{"type":"Point","coordinates":[-71.63692,43.69027]},"properties":{"CWPName":"ASHLAND TOWN OF","SourceID":"NH0100005","CWPStreet":"6 COLLINS STREET","CWPCity":"ASHLAND","CWPState":"NH","RegistryID":"110001104359","CWPNAICSCodes":null,"CWPTotalDesignFlowNmbr":null,"CWPActualAverageFlowNmbr":1.6,"CWPInspectionCount":3,"CWPSNCStatus":null,"CWPQtrsWithNC":2,"CWPE90Cnt":0,"CWPFormalEaCnt":null,"ElectrRptWaiverExpDate":null}},{"type":"Feature","geometry":{"type":"Point","coordinates":[-96.37968,41.03919]},"properties":{"CWPName":"ASHLAND WASTEWATER TREATMENT FACILITY","SourceID":"NE0026107","CWPStreet":"2304 SILVER STREET","CWPCity":"ASHLAND","CWPState":"NE","RegistryID":"110008951321","CWPNAICSCodes":null,"CWPTotalDesignFlowNmbr":0.35,"CWPActualAverageFlowNmbr":0.233,"CWPInspectionCount":2,"CWPSNCStatus":null,"CWPQtrsWithNC":4,"CWPE90Cnt":20,"CWPFormalEaCnt":null,"ElectrRptWaiverExpDate":null}},{"type":"Feature","geometry":{"type":"Point","coordinates":[-81.358718,37.407265]},"properties":{"CWPName":"ASHLAND\/CRUMPLER WASTEWATER COLLECTION & TREATMENT","SourceID":"WVR111127","CWPStreet":"COUNTY ROUTES 14 & 17","CWPCity":"CRUMPLER","CWPState":"WV","RegistryID":"110070926875","CWPNAICSCodes":null,"CWPTotalDesignFlowNmbr":null,"CWPActualAverageFlowNmbr":null,"CWPInspectionCount":0,"CWPSNCStatus":null,"CWPQtrsWithNC":0,"CWPE90Cnt":0,"CWPFormalEaCnt":null,"ElectrRptWaiverExpDate":null}},{"type":"Feature","geometry":{"type":"Point","coordinates":[-80.78715,41.90237]},"properties":{"CWPName":"ASHTABULA WPCP","SourceID":"OH0023914","CWPStreet":"303 WOODLAND AVE","CWPCity":"ASHTABULA","CWPState":"OH","RegistryID":"110015643044","CWPNAICSCodes":null,"CWPTotalDesignFlowNmbr":12,"CWPActualAverageFlowNmbr":null,"CWPInspectionCount":5,"CWPSNCStatus":null,"CWPQtrsWithNC":4,"CWPE90Cnt":4,"CWPFormalEaCnt":null,"ElectrRptWaiverExpDate":null}},{"type":"Feature","geometry":{"type":"Point","coordinates":[-156.011801,19.683254]},"properties":{"CWPName":"ASSOCIATED STEEL WORKERS (1)","SourceID":"HIS000589","CWPStreet":"UNKNOWN","CWPCity":"UNKNOWN","CWPState":"HI","RegistryID":"110055098665","CWPNAICSCodes":null,"CWPTotalDesignFlowNmbr":null,"CWPActualAverageFlowNmbr":null,"CWPInspectionCount":0,"CWPSNCStatus":null,"CWPQtrsWithNC":0,"CWPE90Cnt":0,"CWPFormalEaCnt":null,"ElectrRptWaiverExpDate":null}},{"type":"Feature","geometry":{"type":"Point","coordinates":[-90.067444,45.029444]},"properties":{"CWPName":"ATHENS WASTEWATER TREATMENT FA","SourceID":"WI0022365","CWPStreet":"GOODRICH ST","CWPCity":"ATHENS","CWPState":"WI","RegistryID":"110039713478","CWPNAICSCodes":null,"CWPTotalDesignFlowNmbr":0.105,"CWPActualAverageFlowNmbr":null,"CWPInspectionCount":1,"CWPSNCStatus":null,"CWPQtrsWithNC":10,"CWPE90Cnt":0,"CWPFormalEaCnt":null,"ElectrRptWaiverExpDate":null}},{"type":"Feature","geometry":{"type":"Point","coordinates":[-72.242982,42.586234]},"properties":{"CWPName":"ATHOL W W T P","SourceID":"MAG590016","CWPStreet":"69 JONES STREET","CWPCity":"ATHOL","CWPState":"MA","RegistryID":"110006618785","CWPNAICSCodes":null,"CWPTotalDesignFlowNmbr":null,"CWPActualAverageFlowNmbr":null,"CWPInspectionCount":0,"CWPSNCStatus":null,"CWPQtrsWithNC":2,"CWPE90Cnt":2,"CWPFormalEaCnt":null,"ElectrRptWaiverExpDate":null}},{"type":"Feature","geometry":{"type":"Point","coordinates":[-92.909722,35.173889]},"properties":{"CWPName":"ATKINS, CITY OF - NORTH WASTEWATER TREATMENT FACILITY","SourceID":"AR0034665","CWPStreet":"1309 NE 4TH STREET","CWPCity":"ATKINS","CWPState":"AR","RegistryID":"110009124704","CWPNAICSCodes":"221320","CWPTotalDesignFlowNmbr":0.975,"CWPActualAverageFlowNmbr":0.41,"CWPInspectionCount":2,"CWPSNCStatus":null,"CWPQtrsWithNC":9,"CWPE90Cnt":21,"CWPFormalEaCnt":1,"ElectrRptWaiverExpDate":null}},{"type":"Feature","geometry":{"type":"Point","coordinates":[-92.938789,35.215939]},"properties":{"CWPName":"ATKINS, CITY OF - SOUTH WASTEWATER TREATMENT PLANT","SourceID":"AR0034673","CWPStreet":"WESTERN DEAD END OF SE 15TH STREET","CWPCity":"ATKINS","CWPState":"AR","RegistryID":"110010066418","CWPNAICSCodes":"221320","CWPTotalDesignFlowNmbr":0.08,"CWPActualAverageFlowNmbr":0.087,"CWPInspectionCount":1,"CWPSNCStatus":null,"CWPQtrsWithNC":7,"CWPE90Cnt":7,"CWPFormalEaCnt":1,"ElectrRptWaiverExpDate":null}},{"type":"Feature","geometry":{"type":"Point","coordinates":[-98.9742,42.5244]},"properties":{"CWPName":"ATKINSON WASTEWATER TREATMENT FACILITY","SourceID":"NE0021610","CWPStreet":"700 SOUTH MAIN STREET","CWPCity":"ATKINSON","CWPState":"NE","RegistryID":"110011036217","CWPNAICSCodes":null,"CWPTotalDesignFlowNmbr":0.149,"CWPActualAverageFlowNmbr":0.149,"CWPInspectionCount":1,"CWPSNCStatus":"Compliance\/Permit Schedule - Violations","CWPQtrsWithNC":7,"CWPE90Cnt":22,"CWPFormalEaCnt":null,"ElectrRptWaiverExpDate":null}},{"type":"Feature","geometry":{"type":"Point","coordinates":[-81.411389,30.369444]},"properties":{"CWPName":"ATLANTIC BEACH WASTEWATER TREATMENT PLANT - #2","SourceID":"FLRNEE656","CWPStreet":"739 RENAULT DR","CWPCity":"JACKSONVILLE","CWPState":"FL","RegistryID":"110027953953","CWPNAICSCodes":"221320","CWPTotalDesignFlowNmbr":null,"CWPActualAverageFlowNmbr":null,"CWPInspectionCount":0,"CWPSNCStatus":null,"CWPQtrsWithNC":0,"CWPE90Cnt":0,"CWPFormalEaCnt":null,"ElectrRptWaiverExpDate":null}},{"type":"Feature","geometry":{"type":"Point","coordinates":[-74.45342,39.37774]},"properties":{"CWPName":"ATLANTIC COUNTY UTILITIES AUTH WWTF","SourceID":"NJ0024473","CWPStreet":"1801 ABSECON BLVD","CWPCity":"ATLANTIC CITY","CWPState":"NJ","RegistryID":"110000734411","CWPNAICSCodes":null,"CWPTotalDesignFlowNmbr":40,"CWPActualAverageFlowNmbr":null,"CWPInspectionCount":4,"CWPSNCStatus":null,"CWPQtrsWithNC":3,"CWPE90Cnt":6,"CWPFormalEaCnt":null,"ElectrRptWaiverExpDate":null}},{"type":"Feature","geometry":{"type":"Point","coordinates":[-74.45342,39.37774]},"properties":{"CWPName":"ATLANTIC COUNTY UTILITIES AUTH WWTF","SourceID":"NJG113280","CWPStreet":"1801 ABSECON BLVD","CWPCity":"ATLANTIC CITY","CWPState":"NJ","RegistryID":"110000734411","CWPNAICSCodes":null,"CWPTotalDesignFlowNmbr":null,"CWPActualAverageFlowNmbr":null,"CWPInspectionCount":0,"CWPSNCStatus":null,"CWPQtrsWithNC":12,"CWPE90Cnt":0,"CWPFormalEaCnt":null,"ElectrRptWaiverExpDate":null}},{"type":"Feature","geometry":{"type":"Point","coordinates":[-86.0459,33.988]},"properties":{"CWPName":"ATTALLA WASTEWATER TREATMENT LAGOON","SourceID":"AL0057657","CWPStreet":"4000 EAST GREENVIEW AVENUE","CWPCity":"RAINBOW CITY","CWPState":"AL","RegistryID":"110055973861","CWPNAICSCodes":"221320","CWPTotalDesignFlowNmbr":1.93,"CWPActualAverageFlowNmbr":1.92,"CWPInspectionCount":7,"CWPSNCStatus":null,"CWPQtrsWithNC":5,"CWPE90Cnt":8,"CWPFormalEaCnt":null,"ElectrRptWaiverExpDate":null}},{"type":"Feature","geometry":{"type":"Point","coordinates":[-78.27676,42.87116]},"properties":{"CWPName":"ATTICA (V) WWTP","SourceID":"NY0021849","CWPStreet":"122 PROSPECT STREET","CWPCity":"ATTICA","CWPState":"NY","RegistryID":"110019353395","CWPNAICSCodes":null,"CWPTotalDesignFlowNmbr":1.4,"CWPActualAverageFlowNmbr":null,"CWPInspectionCount":4,"CWPSNCStatus":null,"CWPQtrsWithNC":12,"CWPE90Cnt":5,"CWPFormalEaCnt":null,"ElectrRptWaiverExpDate":null}},{"type":"Feature","geometry":{"type":"Point","coordinates":[-98.225883,37.240117]},"properties":{"CWPName":"ATTICA, CITY OF","SourceID":"KS0116785","CWPStreet":"PO BOX 421","CWPCity":"ATTICA","CWPState":"KS","RegistryID":"110006810978","CWPNAICSCodes":"221320","CWPTotalDesignFlowNmbr":null,"CWPActualAverageFlowNmbr":null,"CWPInspectionCount":1,"CWPSNCStatus":null,"CWPQtrsWithNC":0,"CWPE90Cnt":0,"CWPFormalEaCnt":null,"ElectrRptWaiverExpDate":null}},{"type":"Feature","geometry":{"type":"Point","coordinates":[-71.32987,41.90154]},"properties":{"CWPName":"ATTLEBORO WASTEWATER TREATMENT PLANT","SourceID":"MANOEJ03G","CWPStreet":"27 POND STREET NORTH","CWPCity":"ATTLEBORO","CWPState":"MA","RegistryID":"110061485227","CWPNAICSCodes":null,"CWPTotalDesignFlowNmbr":null,"CWPActualAverageFlowNmbr":null,"CWPInspectionCount":1,"CWPSNCStatus":null,"CWPQtrsWithNC":0,"CWPE90Cnt":0,"CWPFormalEaCnt":null,"ElectrRptWaiverExpDate":null}},{"type":"Feature","geometry":{"type":"Point","coordinates":[-71.337683,41.898891]},"properties":{"CWPName":"ATTLEBORO WPCF","SourceID":"MA0100595","CWPStreet":"27 POND STREET NORTH FACILITY","CWPCity":"ATTLEBORO","CWPState":"MA","RegistryID":"110000552651","CWPNAICSCodes":null,"CWPTotalDesignFlowNmbr":8.6,"CWPActualAverageFlowNmbr":null,"CWPInspectionCount":1,"CWPSNCStatus":null,"CWPQtrsWithNC":5,"CWPE90Cnt":53,"CWPFormalEaCnt":null,"ElectrRptWaiverExpDate":null}},{"type":"Feature","geometry":{"type":"Point","coordinates":[-120.633474,37.27532]},"properties":{"CWPName":"ATWATER REGIONAL WASTEWATER TREATMENT PLANT","SourceID":"CAZ427382","CWPStreet":"530 S BERT CRANE RD","CWPCity":"ATWATER","CWPState":"CA","RegistryID":"110044883908","CWPNAICSCodes":null,"CWPTotalDesignFlowNmbr":null,"CWPActualAverageFlowNmbr":null,"CWPInspectionCount":0,"CWPSNCStatus":null,"CWPQtrsWithNC":0,"CWPE90Cnt":0,"CWPFormalEaCnt":null,"ElectrRptWaiverExpDate":null}},{"type":"Feature","geometry":{"type":"Point","coordinates":[-120.633474,37.27532]},"properties":{"CWPName":"ATWATER REGIONAL WWTF","SourceID":"CAC422026","CWPStreet":"530 SOUTH BERT CRANE","CWPCity":"ATWATER","CWPState":"CA","RegistryID":"110044883908","CWPNAICSCodes":null,"CWPTotalDesignFlowNmbr":6,"CWPActualAverageFlowNmbr":null,"CWPInspectionCount":2,"CWPSNCStatus":null,"CWPQtrsWithNC":4,"CWPE90Cnt":4,"CWPFormalEaCnt":null,"ElectrRptWaiverExpDate":null}},{"type":"Feature","geometry":{"type":"Point","coordinates":[-84.589722,35.425833]},"properties":{"CWPName":"AUB - NORTH MOUSE CREEK STP","SourceID":"TN0067539","CWPStreet":"339 CR-128","CWPCity":"ATHENS","CWPState":"TN","RegistryID":"110002348941","CWPNAICSCodes":"221320","CWPTotalDesignFlowNmbr":1.2,"CWPActualAverageFlowNmbr":1.21,"CWPInspectionCount":3,"CWPSNCStatus":null,"CWPQtrsWithNC":6,"CWPE90Cnt":8,"CWPFormalEaCnt":null,"ElectrRptWaiverExpDate":null}},{"type":"Feature","geometry":{"type":"Point","coordinates":[-84.589722,35.425833]},"properties":{"CWPName":"AUB-OOSTANAULA CREEK STP","SourceID":"TN0024201","CWPStreet":"220 ALFORD STREET","CWPCity":"ATHENS","CWPState":"TN","RegistryID":"110002348941","CWPNAICSCodes":"221320","CWPTotalDesignFlowNmbr":6,"CWPActualAverageFlowNmbr":2.56,"CWPInspectionCount":9,"CWPSNCStatus":null,"CWPQtrsWithNC":6,"CWPE90Cnt":8,"CWPFormalEaCnt":null,"ElectrRptWaiverExpDate":null}},{"type":"Feature","geometry":{"type":"Point","coordinates":[-84.589722,35.425833]},"properties":{"CWPName":"AUB-OOSTANAULA CREEK STP","SourceID":"TNR056424","CWPStreet":"220 ALFORD STREET","CWPCity":"ATHENS","CWPState":"TN","RegistryID":"110002348941","CWPNAICSCodes":null,"CWPTotalDesignFlowNmbr":null,"CWPActualAverageFlowNmbr":null,"CWPInspectionCount":1,"CWPSNCStatus":null,"CWPQtrsWithNC":0,"CWPE90Cnt":0,"CWPFormalEaCnt":null,"ElectrRptWaiverExpDate":null}},{"type":"Feature","geometry":{"type":"Point","coordinates":[-90.891417,34.706306]},"properties":{"CWPName":"AUBREY, CITY OF","SourceID":"AR0038784","CWPStreet":"LEE ROAD 323","CWPCity":"AUBREY","CWPState":"AR","RegistryID":"110010065801","CWPNAICSCodes":"221320","CWPTotalDesignFlowNmbr":0.08,"CWPActualAverageFlowNmbr":0.06,"CWPInspectionCount":2,"CWPSNCStatus":null,"CWPQtrsWithNC":7,"CWPE90Cnt":2,"CWPFormalEaCnt":null,"ElectrRptWaiverExpDate":null}},{"type":"Feature","geometry":{"type":"Point","coordinates":[-95.8388,40.3939]},"properties":{"CWPName":"AUBURN WASTEWATER TREATMENT FACILITY","SourceID":"NE0027774","CWPStreet":"63982 HIGHWAY 136","CWPCity":"AUBURN","CWPState":"NE","RegistryID":"110006601846","CWPNAICSCodes":null,"CWPTotalDesignFlowNmbr":0.74,"CWPActualAverageFlowNmbr":0.31,"CWPInspectionCount":1,"CWPSNCStatus":null,"CWPQtrsWithNC":3,"CWPE90Cnt":7,"CWPFormalEaCnt":null,"ElectrRptWaiverExpDate":null}},{"type":"Feature","geometry":{"type":"Point","coordinates":[-89.990444,44.634028]},"properties":{"CWPName":"AUBURNDALE WASTEWATER TREATMENT FACILITY","SourceID":"WI0022411","CWPStreet":"NW1\/4, SE1\/4, SECTION 23, AUBURNDALE, WI","CWPCity":"AUBURNDALE","CWPState":"WI","RegistryID":"110010888708","CWPNAICSCodes":null,"CWPTotalDesignFlowNmbr":0.12,"CWPActualAverageFlowNmbr":0.123,"CWPInspectionCount":1,"CWPSNCStatus":null,"CWPQtrsWithNC":11,"CWPE90Cnt":1,"CWPFormalEaCnt":null,"ElectrRptWaiverExpDate":null}},{"type":"Feature","geometry":{"type":"Point","coordinates":[-91.130389,44.683528]},"properties":{"CWPName":"AUGUSTA WASTEWATER TREATMENT FACILITY","SourceID":"WI0023272","CWPStreet":"800 STH 27 N SIDE BRIDGE CRK, AUGUSTA, WI","CWPCity":"AUGUSTA","CWPState":"WI","RegistryID":"110010888343","CWPNAICSCodes":null,"CWPTotalDesignFlowNmbr":0.33,"CWPActualAverageFlowNmbr":0.334,"CWPInspectionCount":0,"CWPSNCStatus":null,"CWPQtrsWithNC":4,"CWPE90Cnt":1,"CWPFormalEaCnt":null,"ElectrRptWaiverExpDate":null}},{"type":"Feature","geometry":{"type":"Point","coordinates":[-134.648405,58.38727]},"properties":{"CWPName":"AUKE BAY WWTF","SourceID":"AKG572004","CWPStreet":"11825 GLACIER HWY","CWPCity":"JUNEAU","CWPState":"AK","RegistryID":"110020034390","CWPNAICSCodes":"221320","CWPTotalDesignFlowNmbr":null,"CWPActualAverageFlowNmbr":null,"CWPInspectionCount":1,"CWPSNCStatus":null,"CWPQtrsWithNC":3,"CWPE90Cnt":8,"CWPFormalEaCnt":null,"ElectrRptWaiverExpDate":null}},{"type":"Feature","geometry":{"type":"Point","coordinates":[-95.778055,29.851666]},"properties":{"CWPName":"AURORA WASTEWATER TREATMENT FACILITY","SourceID":"TX0140180","CWPStreet":"2480' NW OF INTX PEEK ROAD AND STOCKDICK SCHOOL RD","CWPCity":"KATY","CWPState":"TX","RegistryID":"110070711694","CWPNAICSCodes":null,"CWPTotalDesignFlowNmbr":0.48,"CWPActualAverageFlowNmbr":0.12,"CWPInspectionCount":1,"CWPSNCStatus":null,"CWPQtrsWithNC":2,"CWPE90Cnt":1,"CWPFormalEaCnt":null,"ElectrRptWaiverExpDate":null}},{"type":"Feature","geometry":{"type":"Point","coordinates":[-97.9786,40.86634]},"properties":{"CWPName":"AURORA WASTEWATER TREATMENT FACILITY","SourceID":"NE0031810","CWPStreet":"1205 SOUTH \"R\" ROAD","CWPCity":"AURORA","CWPState":"NE","RegistryID":"110000761284","CWPNAICSCodes":null,"CWPTotalDesignFlowNmbr":1.8,"CWPActualAverageFlowNmbr":0.58,"CWPInspectionCount":2,"CWPSNCStatus":null,"CWPQtrsWithNC":1,"CWPE90Cnt":0,"CWPFormalEaCnt":null,"ElectrRptWaiverExpDate":null}},{"type":"Feature","geometry":{"type":"Point","coordinates":[-155.944841,19.567027]},"properties":{"CWPName":"AVIATION ACADEMY HAWAII (2)","SourceID":"HI22BG700","CWPStreet":"UNKNOWN","CWPCity":"UNKNOWN","CWPState":"HI","RegistryID":"110039177459","CWPNAICSCodes":null,"CWPTotalDesignFlowNmbr":null,"CWPActualAverageFlowNmbr":null,"CWPInspectionCount":0,"CWPSNCStatus":null,"CWPQtrsWithNC":0,"CWPE90Cnt":0,"CWPFormalEaCnt":null,"ElectrRptWaiverExpDate":null}},{"type":"Feature","geometry":{"type":"Point","coordinates":[-90.3353,43.1832]},"properties":{"CWPName":"AVOCA WASTEWATER TREATMENT FACILITY","SourceID":"WI0060151","CWPStreet":"LAGOON ROAD, NWQ, NEQ, SEC 11, T8N, R1E, PULASKI T","CWPCity":"AVOCA","CWPState":"WI","RegistryID":"110010884445","CWPNAICSCodes":null,"CWPTotalDesignFlowNmbr":null,"CWPActualAverageFlowNmbr":0.028,"CWPInspectionCount":1,"CWPSNCStatus":null,"CWPQtrsWithNC":7,"CWPE90Cnt":2,"CWPFormalEaCnt":null,"ElectrRptWaiverExpDate":null}},{"type":"Feature","geometry":{"type":"Point","coordinates":[-96.1194,40.7959]},"properties":{"CWPName":"AVOCA WASTEWATER TREATMENT FACILITY","SourceID":"NE0113131","CWPStreet":"100 WATER STREET","CWPCity":"AVOCA","CWPState":"NE","RegistryID":"110006579773","CWPNAICSCodes":null,"CWPTotalDesignFlowNmbr":0.025,"CWPActualAverageFlowNmbr":0.015,"CWPInspectionCount":1,"CWPSNCStatus":null,"CWPQtrsWithNC":5,"CWPE90Cnt":0,"CWPFormalEaCnt":null,"ElectrRptWaiverExpDate":null}},{"type":"Feature","geometry":{"type":"Point","coordinates":[-71.603265,42.560413]},"properties":{"CWPName":"AYER W W T P","SourceID":"MAG590031","CWPStreet":"BROOK STREET","CWPCity":"AYER","CWPState":"MA","RegistryID":"110006618794","CWPNAICSCodes":null,"CWPTotalDesignFlowNmbr":null,"CWPActualAverageFlowNmbr":null,"CWPInspectionCount":1,"CWPSNCStatus":"Effluent - Monthly Average Limit","CWPQtrsWithNC":8,"CWPE90Cnt":32,"CWPFormalEaCnt":null,"ElectrRptWaiverExpDate":null}},{"type":"Feature","geometry":{"type":"Point","coordinates":[-71.603265,42.560413]},"properties":{"CWPName":"AYER WASTEWATER TREATMENT PLANT","SourceID":"MAR053429","CWPStreet":"25 BROOK STREET","CWPCity":"AYER","CWPState":"MA","RegistryID":"110006618794","CWPNAICSCodes":null,"CWPTotalDesignFlowNmbr":null,"CWPActualAverageFlowNmbr":null,"CWPInspectionCount":0,"CWPSNCStatus":null,"CWPQtrsWithNC":3,"CWPE90Cnt":0,"CWPFormalEaCnt":null,"ElectrRptWaiverExpDate":null}},